,title,icon_prize,average_price,users_rate,number_reviews,street,address_formatted,lat,lon
8027,Aylo apats i degustacio,,€8 - €20,4.5,,Calle Cigne 6,"Carrer del Cigne, 08012 Barcelona, Spain",41.4008233,2.1543175
8028,Blai Stop,,"Mediterranean, Spanish, Bar, Pub",4.0,,"Calle Blai, 06","Blai, Carrer de Blai, 08015 Barcelona, Spain",41.3742769,2.1630491
8029,A' Kaskarla Mercat de la Boqueria,,Seafood,4.0,,Locals 11 - 15,"Petits Locals, Carrer de la Masia Nova, 6, 08800 Vilanova i la Geltrú, Spain",41.2321836,1.7407895
8030,Masqmenos - Consell de Cent,,"Spanish, Mediterranean, European",3.5,,"Consell De Cent, 329","Consell de Cent, Carrer del Consell de Cent, 8015 Barcelona, Spain",41.3754015,2.143262
8031,Baroz Arroceria con Vistas,,€30 - €40,4.0,,Av de le Drassanes 6 - 8,"Drassanes, Catalonia, Spain",41.3752,2.17658
8032,El Mesonet,,€12 - €30,4.5,,Sepulveda 11,"Carrer de Sepúlveda, 08011 Barcelona, Spain",41.3830534,2.1623085
8033,Pollo Azul,,"Latin, Peruvian, Spanish",4.5,,Meridiana 342,"Avinguda Meridiana, 342-349, 08027 Barcelona, Spain",41.4267472,2.1858287
8034,Restaurant Corea,,€15 - €35,4.0,,Ronda de Sant Pere 25,"Bed and Art, Ronda de Sant Pere, 25, 08010 Barcelona, Spain",41.3897583,2.1744395
8035,Bar Restaurant Galdric,,"European, Spanish, Mediterranean",4.0,,"Passatge Virreina, 2 Local","Passatge de la Virreina, 08211 Castellar del Vallès, Spain",41.6191379,2.0975525
8036,Pizzeria ciao gio',,€3 - €12,4.5,,Calle Alts Forns n69/71,"Catalonia, Spain",41.66667,2.0
8037,Merendero Tradicio,,Spanish,4.5,,Carrer Sant Elies 22,"Sant Elies, Catalonia, Spain",41.495558,1.6709767
8038,FRIVO Fresh Friendly Fish,,€4 - €10,5.0,,"Carrer Dels Angels, 12","Carrer dels Angels, 08187 l'Ametlla del Vallès, Spain",41.6422147,2.2447735
8039,Udon Som Multiespai,,€15 - €30,4.0,,Avinguda de Rio de Janeiro 42,"McDonald's, Avinguda de Rio de Janeiro, 42, 08016 Barcelona, Spain",41.4354928,2.1806468
8040,Kinben,,€8 - €20,4.5,,"Carrer del Consell de Cent, 323","Escola Perez Iborra, Carrer del Consell de Cent, 323, 080009 Barcelona, Spain",41.3897927,2.1633788
8041,Perluo Cafe,,,5.0,,"Carrer de Casp, 41","Carrer de Casp, 08013 Barcelona, Spain",41.3974988,2.1815631
8042,Norai Raval,,€10 - €45,4.0,,Avenida de les Drassanes s/n,"Avinguda de les Drassanes, 08001 Barcelona, Spain",41.3769511,2.1721396
8043,Restaurante De Blanc,,€12 - €30,4.5,,"Av. Roma, 22","Avinguda Roma, 08290 Cerdanyola del Vallès, Spain",41.4881878,2.1292572
8044,Il Fuoco Pizzeria,,€2 - €10,4.0,,"Carrer de Creu Coberta, 95","Carrer de la Creu Coberta, 8015 Barcelona, Spain",41.3750783,2.1482657
8045,El Nacional - La Parada,,"Mediterranean, Spanish",3.5,,"Passeig de Gracia, 24 bis","Passeig de Gràcia, 24 Bis, 08007 Barcelona, Spain",41.3905227,2.1682552
8046,Xerta Tapas Bar,,€20 - €50,4.0,,C/ Corsega 289,"Còrsega, 08192 Sant Quirze del Vallès, Spain",41.5294463,2.0700326
8047,Baladi,,€3 - €13,5.0,,Placa de la vila de Gracia 7,"Plaça de la Vila de Gràcia, Barcelona, Spain",41.4001977,2.1576125
8048,Restaurante Cabaneros,,"Spanish, Mediterranean, European",3.5,,"Vallespir, 17","Cabañeros, Carrer del Vallespir, 17, 08014 Barcelona, Spain",41.3782958,2.137713
8049,Cerveceria La Capra,,"Brew Pub, Pub",4.5,,"Sancho de Avila St, 173","Catalonia, Spain",41.66667,2.0
8050,Esto Es Mexico,,"Mexican, Latin, Spanish",3.5,,"Carrer Brava, n013. Sant Vicenc de Montalt","Sant Vicenç de Montalt, Catalonia, Spain",41.57853,2.50879
8051,Cafe Roslin,,"Spanish, Cafe, European",4.5,,"C Caballero, 67","Carrer de Fernán Caballero, 08035 Barcelona, Spain",41.423607,2.1449946
8052,Caputxes,,"Mediterranean, European, Spanish",3.5,,Carrer de Les Caputxes 4,"Carrer de les Caputxes, 4, 08003 Barcelona, Spain",41.3832992,2.1815964
8053,Stop Cafeteria,,"Mediterranean, Spanish, European",4.5,,C Diputacio,"Carrer Diputacio, 08780 el Papiol, Spain",41.4399999,2.0118282
8054,Frankfurt Jazzband,,"Brew Pub, European, Pub, Mediterranean",5.0,,Nou De La Rambla 109,"Nou de la Rambla, Avinguda del Paral·lel, 08001 Barcelona, Spain",41.3750759,2.1702821
8055,L’Anima del Vi,,"Wine Bar, Deli",4.0,,"Carrer dels Vigatans, 8","Carrer dels Vigatans, CP 08003 Barcelona, Spain",41.3842468,2.1799098
8056,Casa Rufo's,,€6 - €20,4.5,,Sicilia 266,"Sicília, Rambla del Fondo, 08922 Santa Coloma de Gramenet, Spain",41.4514955,2.2174059
8057,Kodama,,"Bar, Pub, Wine Bar",5.0,,Placeta San Francesc 1,"Catalonia, Spain",41.66667,2.0
8058,GUST,,"Spanish, French",4.5,,Gran Via 633,"Gran Via, 08206 Sabadell, Spain",41.5610724,2.1013811
8059,El Bund 18,,"Chinese, Asian",4.0,,"Carrer de Lepant, 288","El bund 18, Carrer de Lepant, 286-288, 8025 Barcelona, Spain",41.4050649,2.176049
8060,El Rebost del Ripolles,,"Spanish, Mediterranean",4.5,,"Carrer Galileu, 301","Passeig de Sant Antoni, Galileu, 08014 Barcelona, Spain",41.3755137,2.135837
8061,Kilele brunch & cocktails,,€7 - €15,4.5,,Calle valencia 349 - barcelona,"Carrer Valencia, 08770 Sant Sadurní d'Anoia, Spain",41.4281682,1.7826155
8062,Falafel Bowls,,€5 - €10,5.0,,Carrer de Sant Pere Mes Baix 69,"Carrer de Sant Pere Més Baix, 08003 Barcelona, Spain",41.3866886,2.1767454
8063,La Terraza del Hotel Omm,,€12 - €26,4.0,,"Carrer del Rossello, 265, Barcelona","Hotel Sir Victor, Carrer del Rosselló, 265, 08008 Barcelona, Spain",41.3961876,2.1609748
8064,Sant Antoni Glorios,,€18 - €37,3.5,,"Carrer de Manso, 42","Carrer de Manso, 08015 Barcelona, Spain",41.3759255,2.1595946
8065,Viena Diagonal Mar,,"Cafe, Fast Food, Spanish",3.5,,Pl. Diagonal mar 3,"Diagonal Mar i el Front Marítim del Poblenou, Barcelona, Catalonia, Spain",41.4031728,2.2133814
8066,Bubbolitas - Bubble Tea Bar,,"Seating, Takeout",4.0,,"Placa des Bonsucces, 7","Catalonia, Spain",41.66667,2.0
8067,Casa Jaume 1913,,€14 - €25,4.0,,Passeig de Joan de Borbo 7,"Restaurante Siempreviva, Passeig de Joan de Borbó, 7, 72 Barcelona, Spain",41.3811092,2.1870673
8068,Sushi Taller,,€15 - €40,4.0,,Carrer de Bigai 4,"bonÀrea, Carrer de Bigai, 4, 08022 Barcelona, Spain",41.4049079,2.1327715
8069,Tantarantan,,"Italian, Mediterranean, European, Spanish",3.5,,"Calle del Capitan Arenas, 62","Catalonia, Spain",41.66667,2.0
8070,Da Antonio Restaurante Italiano,,€15 - €35,5.0,,C/ Beethoven 14,"Carrer de Beethoven, 14, 08021 Barcelona, Spain",41.3932272,2.1410859
8071,La Tarantella,,€14 - €20,4.0,,Fraternitat 37,"Parc de la Fraternitat, Can Dunyó, Lliçà d'Amunt, Catalonia, Spain",41.5940467,2.2058857
8072,Star India,,€15 - €20,4.5,,"Carrer de Fluvia, 84","Carrer de Fluviá, 08471 Vallgorguina, Spain",41.6492986,2.5002691
8073,La Vermuteria Del Tano,,Spanish,4.0,,"Carrer De Joan Blanques, 17","La Vermuteria del Tano, Carrer de Joan Blanques, 17, 08037 BCN Barcelona, Spain",41.4047337,2.1608594
8074,Mantequerias Pirenaicas,,"Spanish, Mediterranean",4.0,,"Calle Muntaner, 460","Muntaner, Via Augusta, 08021 Barcelona, Spain",41.3986188,2.1428749
8075,Tokyo Sushi,,"Japanese, Sushi, Asian",4.0,,"Comtal, 20","Comtal, Carrer del Rec Comtal, 16-18, 08003 Barcelona, Spain",41.3894574,2.179799
8076,Restaurante Quiroga,,Spanish,4.0,,"Corts Catalanes, 566","Quiroga, Gran Via de les Corts Catalanes, 566, 08011 Barcelona, Spain",41.3839847,2.1615565
8077,Dona Jacinta,,€3 - €8,4.5,,"Carrer de Pallars, 319","Carrer de Pallars, 319, 08005 Barcelona, Spain",41.4058881,2.2038695
8078,Dos Asnos - The Good Burrito,,€5 - €14,4.0,,Paralelo 99,"Catalonia, Spain",41.66667,2.0
8079,El Pati,,€7 - €12,4.0,,Carrer Tarragona 106 Interior,"Carrer Tarragona, 08303 Mataró, Spain",41.5439848,2.4245662
8080,La Tipa,,€8 - €20,4.5,,Carrer dels Escultors Claperos 41,"Carrer dels Escultors Claperós, 08026 Barcelona, Spain",41.4111745,2.1905676
8081,Tabo,,"Latin, Chilean",4.0,,"Carrer de Lleida, 15","Eduard Calàbria Marimon, Carrer de Lleida, 15, 08800 Vilanova i la Geltrú, Spain",41.2241675,1.7230422
8082,Yamada Sushi Restaurante,,"Japanese, Sushi, Asian, Diner, Healthy",4.0,,"Carrer Gran de Gracia, 57","Casa Colomina, Carrer Gran de Gràcia, 57, 08012 Barcelona, Spain",41.3996016,2.1556729
8083,TEIKIT Barcelona,,€5 - €20,4.0,,"Travessera de Gracia, 50","Restaurante Bomb, Travessera de Gràcia, 50, 08021 Barcelona, Spain",41.3956535,2.1491664
8084,Dias Denorte,,€17 - €22,4.5,,"Ronda de Sant Pau, 5","Ronda de Sant Pau, 08001 Barcelona, Spain",41.3749809,2.1678835
8085,Escoces,,"Mediterranean, Spanish",4.0,,"Mandri, 23","Carrer de Mandri, 08022 Barcelona, Spain",41.4020588,2.1351318
8086,La Sucursal,,€6 - €15,4.0,,"Carrer de Floridablanca, 115","La Sucursal, Carrer de Floridablanca, 115, 08011 Barcelona, Spain",41.3806502,2.1611889
8087,L'Espai Ferrer i Guardia,,€10 - €20,4.5,,"Carrer d'Avinyo, 44","Carrer d'Avinyó, 44, 08002 Barcelona, Spain",41.3804681,2.1784626
8088,La Contrasenya,,€25 - €30,4.5,,Calle Joan d'Austria,"Carrer Joan d'Àustria, 08800 Vilanova i la Geltrú, Spain",41.2152271,1.7209403
8089,Di Vini Sapori,,€20 - €30,4.5,,Buenos Aires 28,"Buenos Aires, Avinguda Diagonal (lateral muntanya), 08088 Barcelona, Spain",41.4007779,2.1753037
8090,Samurai Ramen,,"Japanese, Asian",4.0,,"Carrer de Lleida, 11","Carrer de Lleida, 11, 08800 Vilanova i la Geltrú, Spain",41.2242864,1.7229717
8091,Pizzeria Ristorante Arrabbiata,,"Italian, Pizza",4.0,,Copernic 75,"Plaça de Copèrnic, Can Rull, Sabadell, Catalonia, Spain",41.5538837,2.0897628
8092,Lindt Plaza Cataluna,,Fast Food,4.5,,"Placa de Catalunya, 14","Plaça de Catalunya, les Franqueses del Vallès, Catalonia, Spain",41.6165195,2.2974739
8093,Lizarran,,€5 - €20,3.5,,Can Bruixa 6,"Can Bruixa, Carrer de Joan Güell, 168, 08028 Barcelona, Spain",41.3836595,2.1312922
8094,Chouchou,,"French, Fast Food, Deli",5.0,,"Carrer dels Codols, 16","Carrer dels Còdols, 16, 08002 Barcelona, Spain",41.3795511,2.1782722
8095,Al Maghribia,,"Fast Food, Turkish",4.5,,Calle Aragon 605,"Catalonia, Spain",41.66667,2.0
8096,Passione Napoletana,,"Italian, Neapolitan, Campania, Southern-Italian",4.5,,"Carrer de Villarroel, 247","Pizzeria La Mamma, Carrer de Villarroel, 247, 08036 Barcelona, Spain",41.3917387,2.1479326
8097,Restaurante Metropolitan Iradier,,"Mediterranean, European, Spanish, Healthy",4.0,,"Escoles Pies, 105","Carrer de les Escoles Pies, 08021 Barcelona, Spain",41.395862,2.1354429
8098,MasQMenos Rambla 46,,"Mediterranean, European, Spanish",3.5,,"Rambla Catalunya, 46","Rambla de Catalunya, 08007 Barcelona, Spain",41.392756,2.1611337
8099,Hell Awaits Metal Bar,,€3 - €6,4.5,,Carrer de Les Tapies 21,"Carrer de les Tàpies, 08001 Barcelona, Spain",41.3771863,2.1716091
8100,BiancoNoir Bistrot,,€6 - €20,4.5,,"Calle Riera Alta, 8","Carrer d'en Riera, 08350 Arenys de Mar, Spain",41.5786671,2.549872
8101,Buenas Migas Plaza Espanya,,"Cafe, Fast Food, European, Italian",3.5,,"Placa Espanya, 6-8","The Clock, Plaça Espanya, 6-8, 08014 Barcelona, Spain",41.3754168,2.1482785
8102,Casa Joana,,"Spanish, Mediterranean",4.0,,"Carrer Major de Sarria, 59","Carrer Major de Sarrià, 59, 08017 Barcelona, Spain",41.3980543,2.122506
8103,Oxidat Cafe,,€3 - €25,4.5,,Rambla de Poblenou 117 Local 6,"Catalonia, Spain",41.66667,2.0
8104,La Wera Cocina Mex,,€15 - €30,4.0,,Calle Villarroel 100,"La Villarroel, Carrer de Villarroel, 87, 08011 Barcelona, Spain",41.3845152,2.1573507
8105,Churruca 5,,"Mediterranean, European, Spanish",4.0,,"C/ Almirall Churruca, 5","Catalonia, Spain",41.66667,2.0
8106,Las Fadas Bar Rhums & Mojitos,,€5 - €20,4.5,,275 Consell de Cent,"Consell de Cent, Carrer del Consell de Cent, 8015 Barcelona, Spain",41.3754015,2.143262
8107,Colmado Barcelona,,€9 - €25,4.0,,Calle Provenca 236,"Carrer Provença, 08770 Sant Sadurní d'Anoia, Spain",41.4244026,1.7845184
8108,Books And Co,,Cafe,4.0,,Carrer Del Cardenal Casanas 4,"Hostal Paris, Carrer del Cardenal Casañas, 4, 08002 Barcelona, Spain",41.3814673,2.17346
8109,Fishgon Fish & Chips,,"Seafood, Spanish, Fusion",4.0,,Passeig Sant Joan 66,"passeig del Riu, 08250 Sant Joan de Vilatorrada, Spain",41.7399116,1.8066353
8110,El Mirador del Carmelo II,,"Spanish, Mediterranean",4.5,,"C/ Pasteur, 2","Carrer de Pasteur, 08032 Barcelona, Spain",41.4178032,2.1601235
8112,Bibimbap,,€5 - €15,4.5,,Carrer de Balmes 331,"Carrer de Balmes, 331, 08006 Barcelona, Spain",41.4031134,2.1435565
8113,La Tapa del Triomf,,Spanish,4.0,,"Passeig Lluis Companys, 8","Passeig Lluís Companys, 08420 Canovelles, Spain",41.6169275,2.2776875
8114,Abou Khalil,,€10 - €30,4.0,,"Santalo, 88","Abou-khalil restaurant, Carrer de Santaló, 88, 08021 Barcelona, Spain",41.3977157,2.1433229
8115,Vermuteria Trencalos,,"Seating, Table Service",4.0,,"Carrer de Melcior de Palau, 111","Carrer de Melcior de Palau, 08014 Barcelona, Spain",41.3783252,2.1308329
8116,La Viena Blanca,,"Spanish, Catalan, Mediterranean, European",3.5,,"Carrer del Pintor Fortuny, 10","Carrer del Pintor Fortuny, 10, 08812 Sant Pere de Ribes, Spain",41.2259218,1.7466108
8117,Rovi Tapas Bar & Restaurant,,€12 - €20,4.0,,C/ Lepanto 293,"Lepanto, Carrer de Lepant, 08191 Rubí, Spain",41.5009649,2.0357685
8118,Frescco - Cucumis S.L,,"European, Spanish",4.0,,"Carrer Del Carme, 16","Carrer del Carme, 08001 Barcelona, Spain",41.382392,2.1705246
8119,Gerbard,,€15 - €25,4.5,,"Ivorra, 24","Ivorra SA, avinguda d'Alfons XIII, 08918 Badalona, Spain",41.4380304,2.2253332
8120,CATALAN,,"Spanish, European",4.5,,Rue Balmes,"Gran Hotel Catalonia, Carrer de Balmes, 080007 Barcelona, Spain",41.3938035,2.1567229
8121,Quatre Coses,,"Bar, Spanish, Pub",4.0,,Consell De Cent 329,"Consell de Cent, Carrer del Consell de Cent, 8015 Barcelona, Spain",41.3754015,2.143262
8122,Restaurante A320 By Vueling,,Dinner,4.5,,"Gran Via de las Corts Catalanes, 550","Catalonia, Spain",41.66667,2.0
8123,Timesburg Fabra i Puig,,€9 - €18,4.0,,"Passeig de Fabra i Puig, 233","Passeig de Fabra i Puig, 08031 Barcelona, Spain",41.4303053,2.1755374
8124,La Bodegueta del Poble Sec,,"Spanish, Mediterranean",3.5,,"Carrer de Blai, 47","Carrer de Blai, 08001 Barcelona, Spain",41.3729517,2.1664379
8125,UDON Born,,€15 - €23,3.5,,"Princesa, 23","Carrer de la Princesa, 08003 Barcelona, Spain",41.386603,2.1820736
8126,Panorama Bar,,€4 - €14,4.5,,Passeig Sant Joan 84,"passeig del Riu, 08250 Sant Joan de Vilatorrada, Spain",41.7399116,1.8066353
8127,Tapes Jardi,,€10 - €30,4.5,,"Calle Marina, 59","carrer marina, 08339 Vilassar de Dalt, Spain",41.5113131,2.3574845
8128,La flor de Canela,,"Peruvian, South American",4.0,,Carrer de Watt 8,"Carrer de Watt, 8, 08224 Terrassa, Spain",41.5572935,2.0068457
8129,L'illa de Rossello,,€15 - €45,4.0,,Rossello 191,"Evenia Rosselló, Carrer del Rosselló, 191, 08036 Barcelona, Spain",41.3921435,2.1554083
8130,Meson Pahi,,€11 - €37,4.0,,Torroella de Montgri,"Catalonia, Spain",41.66667,2.0
8131,Habitual cafe,,€13 - €14,4.0,,"Madrazo, 54","Carrer dels Madrazo, 08006 Barcelona, Spain",41.4012893,2.1503926
8132,Isabella's,,€20 - €30,4.0,,Ganduxer 50,"Isabella's, Carrer de Ganduxer, 50, 08021 Barcelona, Spain",41.3959982,2.1368917
8133,Restaurante Mexicano Chilam Balam,,€10 - €30,3.5,,"C/ Industria, 156","Carrer de la Indústria, 156, 08037 Barcelona, Spain",41.408777,2.1734563
8134,La Tanqueta Coffee Shop,,"Healthy, Venezuelan, Spanish, South American",5.0,,Calle Josep Tarradellas 111,"Carrer Josep Tarradellas, 08760 Martorell, Spain",41.4793657,1.9151553
8135,TerraVino BCN,,"Wine Bar, Spanish",4.5,,"Carrer de Santa Caterina, 6,","Carrer de Santa Caterina, 08014 Barcelona, Spain",41.3788936,2.1365098
8136,Obrador Delacrem,,Mediterranean,5.0,,"Passeig de Sant Joan, 59","Passeig de Sant Joan, 59, 08009 Barcelona, Spain",41.396831,2.1725364
8137,Bar Azul Barcelona,,Spanish,4.0,,"Carrer de Corsega, 691","Carrer de Còrsega, 691, 08037 Barcelona, Spain",41.4122262,2.1799258
8138,Kiwi Kitchen,,€3 - €5,5.0,,"Sant Carles, 19","Sant Carles, Galeries Sant Carles, 08401 Granollers, Spain",41.6084569,2.285578
8139,Bol,,"Contemporary, Fusion, Healthy",4.5,,44 Enrique Granados,"Catalonia, Spain",41.66667,2.0
8140,Buenas Migas,,€10 - €30,4.0,,Balmes 470,"Carrer de Balmes, 08470 Sant Celoni, Spain",41.6880275,2.4888254
8141,Edelmann,,€18 - €23,3.5,,"6, Portal de l""Angel Av.","Catalonia, Spain",41.66667,2.0
8142,Al Grano Mercat,,€25 - €40,4.5,,"Carrer de Corsega, 244","Carrer de Còrsega, 244, 08036 Barcelona, Spain",41.3929848,2.1550732
8143,Ca La Iaia,,"Mediterranean, Spanish",4.5,,"Calle Providencia, 99","Carrer Providència, 08830 Sant Boi de Llobregat, Spain",41.3493983,2.029674
8144,Fundacio Joan Miro Restaurante,,Fusion,3.5,,Parc de Montjuic S/N,"Parc de Montjuïc, Avinguda de Miramar, 08004 Barcelona, Spain",41.3687898,2.1631845
8145,L'Oliva,,"Mediterranean, Spanish, European",3.5,,Gran Via de les Corts Corts Catalanes 596,"Catalonia, Spain",41.66667,2.0
8146,Marisc Co,,"Seafood, Mediterranean, Spanish",4.0,,"Carrer del Vidre, 7","Viana, Carrer del Vidre, 7, 08002 Barcelona, Spain",41.3798805,2.1761037
8147,Bistrot by Valkiria,,"Mediterranean, Spanish, Fusion",4.0,,Carrer Pujades 126,"Carrer Pujades, 08783 Masquefa, Spain",41.5043137,1.8092083
8148,La Broqueta,,€15 - €40,3.5,,"Rbla. del Poblenou, 101","Rambla del Poblenou, Barcelona, Spain",41.4070751,2.1933213
8149,Pintxos,,Spanish,4.5,,53 Carrer de Roger de Flor,"Carrer de Roger de Flor, 53-55, 08013 Barcelona, Spain",41.3928098,2.180354
8150,Dora Tapas Bar Restaurant,,,3.5,,"Calle Provenza, 275","Catalonia, Spain",41.66667,2.0
8151,The Mirror Restaurant,,"Mediterranean, European, Spanish",4.0,,"Carrer de Corsega, 255","Carrer de Còrsega, 255, 08036 Barcelona, Spain",41.3931725,2.1544282
8152,Fil Manila,,"Filipino, Asian",4.0,,C/Ramelleres 3,"Carrer de les Ramelleres, 08001 Barcelona, Spain",41.384348,2.1685638
8153,O.K. Sarria,,€21 - €29,3.5,,Jaume Piquet 18,"Carrer de Jaume Piquet, 08034 Barcelona, Spain",41.3978266,2.1238136
8154,Bar Breton,,"Spanish, Bar, Pub",4.5,,"Calle de Breton de los Herreros, 4","Bar Bréton, Carrer de Bretón de los Herreros, 4, 08012 Barcelona, Spain",41.4025769,2.1521443
8155,A Vocados,,"Mediterranean, Spanish, Pizza, European, Contemporary, Healthy",4.5,,Calle Tuset 17,"Carrer de Tuset, 08006 Barcelona, Spain",41.3956711,2.1523527
8156,365. Cafe,,"Spanish, Catalan, Cafe",4.0,,"Ronda Sant Antoni, 31","Ronda Sant Antoni, Ronda de Sant Antoni, 080007 Barcelona, Spain",41.3847746,2.1638203
8157,Tablafina - NH Collection Calderon,,€15 - €35,4.0,,"Rambla De Catalunya, 26","Rambla de Catalunya, Barcelona, Spain",41.3898906,2.1650954
8158,Comaxurros,,Cafe,4.0,,Calle Muntaner 562,"Muntaner, Via Augusta, 08021 Barcelona, Spain",41.3986188,2.1428749
8159,T3 Bar Restaurant,,"Spanish, Mediterranean",4.5,,Passatge Posoltega 17,"Passatge de Posoltega, Barcelona, Spain",41.4381532,2.1965646
8160,La Chirusa,,"American, Mediterranean, Spanish, Argentinean, South American",4.0,,Viladomat 23,"Viladomat, Plaça de l'Ajuntament, 08698 la Nou de Berguedà, Spain",42.1671835,1.884449
8161,The Quick Greek Poblenou,,"Greek, Brew Pub, Fast Food, Mediterranean",4.5,,"Rambla Poblenou, 11-13","Rambla Poblenou, Rambla del Poblenou, 08018 Barcelona, Spain",41.4046882,2.1967694
8162,Platja Ca La Nuri,,€30 - €50,3.5,,"Passeig Maritim de la Barceloneta, 55","Passeig Marítim de la Barceloneta, 08 Barcelona, Spain",41.3834058,2.1948376
8163,Avocados,,Pizza,4.0,,"Carrer de Puigmarti, 11, 1","Carrer de Puigmartí, 08037 BCN Barcelona, Spain",41.4021354,2.1601555
8164,Abrelatas,,€2 - €7,4.0,,Poble Espanyol,"Poble Espanyol, carrer de la Foixarda, 08038 Barcelona, Spain",41.368544,2.148258
8165,RAF Bar,,€15 - €40,4.0,,"Carrer Muntaner, 244","Muntaner, Via Augusta, 08021 Barcelona, Spain",41.3986188,2.1428749
8166,Restaurante Catedral 1951,,"Mediterranean, Spanish",4.0,,Avenida Catedral 7,"Catedral, Carrer dels Capellans, 08002 Barcelona, Spain",41.3848099,2.1751096
8167,Lux&Burg,,€8 - €15,3.5,,"Avinguda Tibidabo, 2 - 4","Avinguda Tibidabo, 08185 Lliçà de Vall, Spain",41.5816152,2.233218
8168,Honest Food,,€5 - €15,4.5,,Jordi Girona 10,"Honest food, Carrer de Jordi Girona, 10, 08034 Barcelona, Spain",41.3872682,2.1133177
8169,La Terrassa de l'Aiguajoc,,€4 - €9,4.5,,Comte Borrell 21-33,"Carrer del Comte Borrell, 21, 08001 Barcelona, Spain",41.3760752,2.1640541
8170,Restaurante El Pescadito,,€15 - €30,3.5,,"Carrer Mandri, 54","Carrer de Mandri, 08022 Barcelona, Spain",41.4015926,2.135606
8171,Daniel Cafe,,"Mediterranean, Spanish",4.0,,Diagonal 177,"Diagonal, Passeig de Gràcia, 08008 Barcelona, Spain",41.3955498,2.1604573
8172,Liuyishou Hotpot,,"Chinese, Asian",4.0,,"Carrer del Consell de Cent, 303","Chongging Liuyishou Hotpot, Carrer del Consell de Cent, 303, 080009 Barcelona, Spain",41.3888538,2.1625157
8173,Taberna los olivares,,"Spanish, Mediterranean",4.0,,"Les corts, 7","les Corts, Barcelona, Catalonia, Spain",41.385244,2.1328626
8174,Chiringuito Las Sardinitas,,,3.5,,"Avinguda del Litoral, 36","Avinguda del Litoral, 08071 Barcelona, Spain",41.3862392,2.1947384
8175,Kiosco Moderno,,"Mediterranean, Spanish, Seafood",4.5,,"La Boqueria - Stalls 364,365","Catalonia, Spain",41.66667,2.0
8176,Restaurante O Ferrado,,€13 - €39,4.0,,"Numancia, 75","Numància, Avinguda Diagonal (lateral mar), 08028 Barcelona, Spain",41.3893363,2.1319742
8177,Restaurante Navia,,,3.5,,"Carrer del Comerc, 33","Pension Ciudadela, Carrer del Comerç, 33, CP 08003 Barcelona, Spain",41.3847987,2.1847029
8178,Restaurante Rabasseda,,"Mediterranean, Spanish",4.5,,"Mercadal, 1","el Mercadal, l'Espunyola, Catalonia, Spain",42.0612636,1.7086573
8179,Restaurante Manolo,,"Mediterranean, Spanish",4.0,,"Torrent de Les Flors, 101","Catalonia, Spain",41.66667,2.0
8180,Yoshino,,"Chinese, Japanese, Sushi, Asian",3.5,,"Mallorca, 90","Mallorca, Carrer de Mallorca, 08009 Barcelona, Spain",41.3968924,2.1667115
8181,Belen,,,4.0,,"Carrer de la Jonquera, 4","Carrer de la Jonquera, 4, 08005 Barcelona, Spain",41.4001714,2.2069717
8182,Tasmango Dessert,,€4 - €12,4.5,,C/Ronda sant pere 64,"Ronda Sant Pere, Plaça de Catalunya, 08010 Barcelona, Spain",41.3877901,2.1705608
8183,La Catedra,,€5 - €25,3.5,,"Gran Via de les Corts Catalanes, 578","Gran Via de les Corts Catalanes, 08018 Barcelona, Spain",41.4101378,2.1957677
8184,Mirando Al Mar,,"Seafood, Mediterranean, Spanish",4.0,,"Moll d'Espanya, 5","Moll d'Espanya, Gothic Quarter, Barcelona, Catalonia, Spain",41.3790967,2.1834962
8185,Pintxos i Tapes Portal Nou,,Spanish,4.5,,Carrer Portal Nou 18,"Catalonia, Spain",41.66667,2.0
8186,Tablao Cordobes,,"Mediterranean, Spanish",3.5,,35 La Rambla,"Centro Galego, La Rambla, 35, 08001 Barcelona, Spain",41.3791435,2.1747253
8187,Fast Kibuka,,€15 - €25,4.0,,"Street Torrent de l'Olla, 23","Torrent de l'Olla, Carrer del Torrent de l'Olla, 221, 08012 Barcelona, Spain",41.4066828,2.1518689
8188,Melrose Dumpling House,,"Japanese, Asian",4.0,,Calabria 204 Bis,"Carrer de Calàbria, 204, 08015 Barcelona, Spain",41.3845824,2.1488873
8189,Tequila Cantina Mexicana,,€8 - €25,4.0,,"Carrer de Bilbao, 13","Carrer de Bilbao, 13-15, 08005 Barcelona, Spain",41.4008023,2.2061091
8190,Meating,,€15 - €30,4.0,,"c/ Amigo, 68","Amigó, Carrer de Tamarit, 08011 Barcelona, Spain",41.3794054,2.1617499
8191,Demeritas,,"Cafe, Mediterranean",4.0,,"C/ Girona, 133","Girona, Catalonia Square, Barcelona, Spain",41.3870006,2.169377
8192,Bartreze,,"Mediterranean, Bar, European, Spanish, Pub",3.5,,"Major de Sarria, 115","Carrer Major de Can Caralleu, 08017 Barcelona, Spain",41.4020258,2.1116018
8193,Can Cirili,,"Mediterranean, Spanish",3.5,,Av. Can Vilardebo 1,"Avinguda de Can Vilardebo, 08186 Lliçà de Vall, Spain",41.6003277,2.2283387
8194,Fukuoka Sushi & Grill,,€15 - €20,5.0,,"Carrer de Mila i Fontanals, 60","Carrer de Mila i Fontanals, 60, 08922 Santa Coloma de Gramenet, Spain",41.4495903,2.2154344
8195,Celler Florida,,€3 - €20,4.5,,"Floridablanca, 112","Floridablanca, carrer de Floridablanca, 08914 Badalona, Spain",41.4408541,2.2255462
8196,Jardin De Bambu,,"Japanese, Sushi, Asian",4.0,,"Carrer Del Marques De Sentmenat, 54","Carrer del Marquès de Sentmenat, 54, 08029 Barcelona, Spain",41.3851437,2.1381902
8197,Restaurante Peruano Andino,,€6 - €15,4.0,,"Corsega, 589","Còrsega, 08192 Sant Quirze del Vallès, Spain",41.5294463,2.0700326
8198,Espit Chupitos,,Dinner,4.5,,"Carrer del Consell de Cent, 268","Carrer del Consell de Cent, 268, 080009 Barcelona, Spain",41.387896,2.1617873
8199,Restaurant Flo,,€15 - €55,4.0,,"Carrer de les Jonqueras, 10","Catalonia, Spain",41.66667,2.0
8200,Toni Bigoti,,"Mediterranean, Spanish",4.0,,Taquigraf Garriga 143,"Toni Bigoti, Carrer del Taquígraf Garriga, 143, 08021 Barcelona, Spain",41.3898085,2.138731
8201,Spaghetti a la Guitarra,,€2 - €4,4.5,,"Carrer de la Lleialtat, 4","Carrer de la Lleialtat, 08001 Barcelona, Spain",41.3764073,2.1661245
8202,can petit,,"Spanish, Bar",4.5,,Paseo San Juan 151,"Catalonia, Spain",41.66667,2.0
8203,MonRoig cocktails,,Deli,5.0,,Carrer de Vic 11,"Carrer de Vic, 11, 08006 Barcelona, Spain",41.3988702,2.1550994
8204,Restobar la Ronda,,€12 - €12,5.0,,Ronda Guinardo 31,"Ronda de Dalt, 08035 Barcelona, Spain",41.439194,2.1565669
8205,Rasa Malaysia Halal,,€5 - €15,4.5,,Passeig Sant Joan 179,"passeig del Riu, 08250 Sant Joan de Vilatorrada, Spain",41.7399116,1.8066353
8206,Rustik,,"Chilean, South American",4.5,,Carrer de Sant Pau 90,"Carrer de Sant Pau, 08001 Barcelona, Spain",41.3767615,2.169631
8207,Restaurante Kikiriki,,€10 - €30,3.5,,Gran Via de les Corts Catalanes 335,"Kikiriki, Gran Via de les Corts Catalanes, 335-337, 8015 Barcelona, Spain",41.3732666,2.146359
8208,Scorpio Restaurant,,"Spanish, Mediterranean",4.0,,Carrer Ali B'ei 6,"Ali Bei, Carrer d'Alí Bei, 08010 Barcelona, Spain",41.3917815,2.1783232
8209,Restaurante Quixote,,"Mediterranean, European, Spanish",4.0,,"Consell de Cent, 314","Consell de Cent, Carrer del Consell de Cent, 8015 Barcelona, Spain",41.3754015,2.143262
8210,Il trastevere,,€26 - €41,3.5,,Dante Alighieri 9-11,"Carrer de Dante Alighieri, 08032 Barcelona, Spain",41.4278629,2.1586862
8211,El Bandarra Taperia,,€10 - €27,4.0,,"Carrer de Torrijos, 53","La Bottega di Lapio, Carrer de Torrijos, 53, 08012 Barcelona, Spain",41.4045731,2.1575966
8212,Tapaspuma,,"Mediterranean, Spanish",4.5,,"Gran Via De Les Corts Catalanes, 291","Gran Via de les Corts Catalanes, 291, 8015 Barcelona, Spain",41.3720794,2.1447843
8213,Els Pollos de Llull,,€8 - €21,3.5,,"Calle Napols, 272","Carrer de Napols, 08303 Mataró, Spain",41.5400773,2.4249297
8214,TopGrill Brazilian Steakhouse,,€12 - €26,4.5,,"Calle Joan Guell, 212","Catalonia, Spain",41.66667,2.0
8215,Kaixuan,,€5 - €15,4.0,,"Calle Roger de Flor, 74","Carrer Roger de Flor, 08924 Santa Coloma de Gramenet, Spain",41.4632118,2.2080004
8216,Bar Castells,,"European, Spanish, Bar, Mediterranean",3.5,,"Pl. del Bonsucces, 1","Plaça del Bonsuccés, Barcelona, Spain",41.3838675,2.1695625
8217,El Tast de Joan Noi,,"Seafood, Spanish, Mediterranean",4.5,,"Placa Llibertat 27, Gracia","Gràcia, Catalonia, Spain",41.40237,2.15641
8218,La Fonda de Sant Gervasi,,"Mediterranean, Spanish",4.0,,Carrer de Sant Marius 22,"Carrer de Sant Màrius, 08022 Barcelona, Spain",41.4034316,2.137206
8219,Ami Manera,,"European, Spanish",5.0,,Calle Parlament 15,"Carrer del Parlament, 08015 Barcelona, Spain",41.3758931,2.161805
8220,Taverna La Llesca,,"Steakhouse, Barbecue, Spanish, Mediterranean",3.5,,"Travessera de Gracia, 86","La Llesca, Travessera de Gràcia, 86, 08006 Barcelona, Spain",41.3977903,2.1524192
8221,Ramen Shifu,,€7 - €30,4.5,,Carrer del Consell de Cent 323,"Escola Perez Iborra, Carrer del Consell de Cent, 323, 080009 Barcelona, Spain",41.3897927,2.1633788
8222,Bocca di Bonifacio,,€15 - €35,4.5,,Carrer de Ausias Marc 43,"Catalonia, Spain",41.66667,2.0
8223,Sants Es Crema,,€25 - €48,4.0,,"Carrer dels Comptes de Bell-Lloc, 118","Catalonia, Spain",41.66667,2.0
8224,Honey Cafeteria,,"Cafe, Mediterranean, European",4.5,,Valencia 190,"Valencia, Carrer de València, 08291 Ripollet, Spain",41.4943576,2.1695649
8225,Menja be,,"Mediterranean, Spanish",4.5,,Carrer de Rossello 112,"Carrer de Rosselló, 08530 la Garriga, Spain",41.6781144,2.2882616
8226,El Nacional - Barra de Vinos,,Spanish,4.5,,"Passeig De Gracia, 24 Bis","Passeig de Gràcia, 24 Bis, 08007 Barcelona, Spain",41.3905227,2.1682552
8227,A Vocados,,€10 - €25,4.0,,"C. Valencia, 200","Carrer Valencia, 08770 Sant Sadurní d'Anoia, Spain",41.4281682,1.7826155
8228,Rooftop Smokehouse,,International,4.5,,Consell de Cent 159,"Consell de Cent, Carrer del Consell de Cent, 8015 Barcelona, Spain",41.3754015,2.143262
8229,Le Journal,,Bar,4.5,,Carrer de Francisco Giner 36,"Carrer de Francisco Giner, 08008 Barcelona, Spain",41.399093,2.1591747
8230,El Tarantin,,€8 - €40,4.5,,Carrer d'Aribau 186,"Carrer d'Aribau, 186, 08036 Barcelona, Spain",41.3937558,2.1527434
8231,Flor de Maig,,€14 - €29,3.5,,"Calle Pintor Fortuny, 29","Carrer Pintor Fortuny, 08461 Santa Maria de Palautordera, Spain",41.6978056,2.4329001
8232,Restaurante Tibetano Potala,,"Nepali, Asian",4.0,,Carrerarago 397,"Catalonia, Spain",41.66667,2.0
8233,El Dinou,,€10 - €35,4.5,,"C/ de Buscarons, 19","Riera buscarons, 08360 Canet de Mar, Spain",41.5898456,2.5813397
8234,Al Passatore,,"Italian, Pizza, Mediterranean, European",3.5,,Pla Palau No. 8,"Plaça Colonia Pla de Palau, Sant Celoni, Catalonia, Spain",41.6837074,2.4833835
8235,Frankfurt's de Pedralbes,,Fast Food,4.0,,C/Alfambra N0 20,"Alfambra, Carrer de Trias i Giró, 08034 Barcelona, Spain",41.3862381,2.1124486
8236,Restaurante Ocho Patas,,"International, Mediterranean, Spanish",3.5,,"Avenida de Josep Tarradellas, 11","Condis Express, Avinguda de Josep Tarradellas, 11, 08029 Barcelona, Spain",41.381875,2.1420834
8237,Labarra Midtown,,€15 - €40,3.5,,Rossello 231,"Tapas healthy food, Carrer del Rosselló, 231, 08008 Barcelona, Spain",41.3939661,2.1580407
8238,MAAI,,€12 - €15,4.5,,Regas 30,"El Regás, Carrer de Regàs, 10-12, 08006 Barcelona, Spain",41.3986902,2.1521271
8239,El Refugio los 33,,"Chilean, South American",4.0,,"Placa Del Mercat, 19","El refugio de los 33, Plaça del Mercat, 19, 08018 Barcelona, Spain",41.4075568,2.1891002
8240,Casa Amalia,,€20 - €30,3.5,,"Passatge del Mercat, 4-6","Passatge del Mercat, 08009 Barcelona, Spain",41.3960148,2.1687876
8241,Odkhuu's Kitchen,,"Spanish, Asian, Fusion, Eastern European, Mongolian",4.0,,"Avinguda Diagonal, 208","Glòries Multicines, Avinguda Diagonal, 208, 08018 Barcelona, Spain",41.4053714,2.1928801
8242,Restaurante Matatabi,,€10 - €50,4.5,,Carrer Calabria 274,"Carrer de Calàbria, 08015 Barcelona, Spain",41.3772608,2.1582326
8243,Coffee Time Sagrada Familia,,Cafe,4.0,,Calle Marina 260,"carrer marina, 08339 Vilassar de Dalt, Spain",41.5113131,2.3574845
8244,Bodega Notariat No 1,,"Belgian, European, Fusion, Street Food",4.5,,Calle Notariat Number 1,"Carrer del Notariat, 08001 Barcelona, Spain",41.3834245,2.1687159
8245,Can Loes,,€11 - €13,4.5,,"Calle Floridablanca, 93","Carrer Floridablanca, 08301 Mataró, Spain",41.5390542,2.4534399
8246,El Quinto,,€9 - €13,4.5,,"Carrer de Pallars, 173","Carrer de Pallars, 173, 08005 Barcelona, Spain",41.400192,2.1963354
8247,Madre Lievito Laboratorio,,"Italian, Pizza",4.5,,"Carrer dels Almogavers, 148","Carrer dels Almogàvers, 148, 08018 Barcelona, Spain",41.3986669,2.1923294
8248,Bodega Bonavista,,"Wine Bar, Spanish, Deli",4.5,,C/Bonavista 10 Bajos,"Catalonia, Spain",41.66667,2.0
8249,Societat Cultural I Esportiva La Lira,,Spanish,4.0,,Coroleu 15,"Carrer de Coroleu, 15, 08030 Barcelona, Spain",41.4327498,2.1881592
8250,"TERRACOTTA Ceramics, Coffee & Bar",,€5 - €20,5.0,,"Carrer Comte d'Urgell, 130","Carrer Comte d'Urgell, 08859 Begues, Spain",41.3296319,1.9331417
8251,Asa sushibar,,€12 - €28,4.5,,C/Pamplona 29,"Carrer de Pamplona, 29, 08005 Barcelona, Spain",41.3934394,2.1955593
8252,El Jardinet del Port Forum,,€10 - €40,4.5,,Carrer de la Pau 12,"Port Fòrum Sant Adrià, Carrer de la Pau, 12, 08930 Sant Adrià de Besòs, Spain",41.4123053,2.2301443
8253,Ristorante Roma,,€5 - €27,4.0,,Marina 22,"08729 Castellet i la Gornal, Spain",41.25977,1.6430355
8254,Kulas Burgers|Tapas|Cocktails,,€2 - €15,4.0,,"Passeig De Colom, 7","Kulas, Passeig de Colom, 7, 08002 Barcelona, Spain",41.3804417,2.1809918
8255,Caporal Vermuteria & Cocteleria,,€5 - €20,4.0,,"C/ Escudellers, 5","Carrer dels Escudellers, 80002 Barcelona, Spain",41.3799218,2.1766799
8256,Al waha,,"Lebanese, Middle Eastern, Mediterranean",4.0,,"Verdi, 16","Al Waha, Carrer de Verdi, 16, 08012 Barcelona, Spain",41.4034829,2.1573059
8257,Rita Rouge,,"Mediterranean, European, Spanish",3.5,,Placa Gardunya 6,"Plaça de la Gardunya, Barcelona, Spain",41.381437,2.1706866
8258,3 Restaurante,,€20 - €50,4.0,,"Enric Granados, 83","Av. Rius i Taulet, Enric Granados, Avinguda de Rius i Taulet, 08172 Sant Cugat del Vallès, Spain",41.4720436,2.0814069
8259,Cambalache Club,,€10 - €25,4.5,,Providencia 1bis,"Carrer de la Providència, 8 Barcelona, Spain",41.4071505,2.1577347
8260,Zzumo Mas Barcelona,,"Healthy, Cafe, Fast Food",4.5,,"Carrer de la Boqueria, 16","Carrer de la Boqueria, 80002 Barcelona, Spain",41.381585,2.1745904
8261,Bodega Montferry,,Spanish,4.0,,Carrer de Violant d'Hongria Reina d'Arago 105,"Carrer de Violant d'Hongria Reina d'Aragó, 08028 Barcelona, Spain",41.3778112,2.1277724
8262,El Delicios  Comida Etiope,,"African, Ethiopian",5.0,,"Carrer Ca l'Alegre de Dalt, 6","08024 Barcelona, Spain",41.4093317,2.1623227
8263,Senor Burrito,,€5 - €8,4.0,,Calle Ample 12,"Carrer Ample, 12, 08002 Barcelona, Spain",41.3798011,2.179569
8264,Vistro 49 Wine Bar,,€4 - €30,4.0,,"Via Laietana, 49","Restaurant La Plassohla, Via Laietana, 49, 08010 Barcelona, Spain",41.3869749,2.1742731
8265,Bar Laila,,€5 - €15,4.5,,"Carrer Congost, 29","Carrer Congost, 08591 Aiguafreda, Spain",41.7654609,2.2521916
8266,A Veiga,,€8 - €16,4.0,,"Travessera de Gracia, 345","Travessera de Gràcia, 345, 08025 Barcelona, Spain",41.4078042,2.1677651
8267,Osteria Discret,,"Italian, European",5.0,,Carrer Pujades 33,"Carrer Pujades, 08783 Masquefa, Spain",41.5043137,1.8092083
8268,Bar 67 Grados,,€2 - €15,4.5,,"Calle Provenca, 420-422","Carrer Provença, 08770 Sant Sadurní d'Anoia, Spain",41.4244026,1.7845184
8269,La Bricciola,,"Italian, Pizza",4.0,,"Calle Iberia, 18","Iberia, Avinguda de Pepa Colomer, 08820 el Prat de Llobregat, Spain",41.3111838,2.0923181
8270,Sakura-Ya,,"Japanese, Sushi, Asian",4.0,,"Avinguda Diagonal, 557","Uno De 50, Avinguda Diagonal, 557, 08029 Barcelona, Spain",41.3989776,2.1695371
8271,Tres Chiles,,€10 - €16,4.0,,Paris 163,"Paris, Carrer de Rios Rosas, 08801 Cornellà de Llobregat, Spain",41.358094,2.0894605
8272,Barietes,,"Lunch, Dinner",4.5,,"Ronda de Sant Pau, 5","Ronda de Sant Pau, 08001 Barcelona, Spain",41.3749809,2.1678835
8273,El Furacu,,€29 - €36,3.5,,"Girona, 52","Girona, Catalonia Square, Barcelona, Spain",41.3870006,2.169377
8274,Siamo Buona Pizza,,€15 - €22,4.0,,"Carrer del Comte Borrell, 163","Casa de Armonía Asiática, Carrer del Comte Borrell, 163 local 2, 08015 Barcelona, Spain",41.3831805,2.1547188
8275,Thelma&Louise,,€7 - €10,4.5,,Roger de Flor 135,"Roger de Flor, Carrer de Ribes, 08003 Barcelona, Spain",41.3925973,2.1813754
8276,Restaurante Boga,,"Italian, Pizza, Mediterranean, European",4.0,,"Ample, 20","Machete, Carrer Ample, 20, CP 08003 Barcelona, Spain",41.380127,2.1797562
8277,Takumi,,Asian,4.5,,Granvia de les Corts Catalanes 704,"Catalonia, Spain",41.66667,2.0
8278,Restaurant Saiko,,€10 - €15,4.0,,"Carrer de Villarroel, 140","Saiko, Carrer de Villarroel, 140, 08036 Barcelona, Spain",41.3869936,2.1545737
8279,Woki Playa,,€5 - €25,3.5,,"Passeig Maritim de la Barceloneta, 1","Passeig Marítim de la Barceloneta, 08071 Barcelona, Spain",41.384696,2.1956376
8280,Clandestino Cafe Bar,,,4.5,,Rossello 378,"Carrer del Rosselló, 8025 Barcelona, Spain",41.4063496,2.1746519
8281,Hamburgueseria torres,,"Fast Food, Spanish",4.5,,Davantdel Portal Nou 3,"Catalonia, Spain",41.66667,2.0
8282,Rincon Criollo Casanova,,€3 - €23,4.5,,"Carrer de Casanova, 70","Carrer de Casanova, 70, 08011 Barcelona, Spain",41.3853599,2.15914
8283,Deja Vu Restaurant,,€12 - €30,4.5,,Carrer Roger de Lluria 114,"Carrer Roger de Llúria, 08320 el Masnou, Spain",41.4846098,2.3173693
8284,Cantinho Brasileiro,,"Brazilian, Bar, Pub",4.0,,C/ Ample 43,"Carrer Ample, 43, 08002 Barcelona, Spain",41.3810782,2.1803649
8285,The Hideout,,€4 - €14,4.0,,Carrer de alzina 2-4,"Catalonia, Spain",41.66667,2.0
8286,MATAGANA,,"Mediterranean, Spanish, Bar, Pub, Soups, Catalan",4.0,,Republica Argentina 44,"Avenida Republica Argentina 187, Avinguda de la República Argentina, 08023 Barcelona, Spain",41.4114632,2.1416709
8287,Patato Gastro Food,,"European, Spanish",5.0,,"C/ Saragossa , 2","Carrer de Saragossa, 2, 08800 Vilanova i la Geltrú, Spain",41.235793,1.7266267
8288,Un Bocado,,€12 - €20,4.0,,"Carrer De Viladomat, 259","Un Bocado, Carrer de Viladomat, 259, 08029 Barcelona, Spain",41.3866556,2.1478966
8289,Restaurante Xamfra Gaudi,,€14 - €20,3.5,,"Valencia, 443","Valencia, Carrer de València, 08291 Ripollet, Spain",41.4943576,2.1695649
8290,Avenue Bar,,"Bar, Spanish, Fusion",4.0,,"Carrer Torrent de la Olla, 159","Catalonia, Spain",41.66667,2.0
8291,Crep Nova,,"Italian, Pizza, Spanish, European",3.5,,Passeig De Bonanova 12,"Passeig de la Bonanova, 08022 Barcelona, Spain",41.406455,2.1331198
8292,Bar Restaurante Olimpiada 92,,"Spanish, Mediterranean",4.5,,"Pellaires, 1","Plaça dels Pellaires, Mollet del Vallès, Catalonia, Spain",41.5389982,2.2190363
8293,El Wok Verdi,,"Chinese, Japanese, Sushi, Asian",4.0,,"Verdi, 20","Wok Verdi, Carrer de Verdi, 20, 08012 Barcelona, Spain",41.4035902,2.1572028
8294,El Coc,,€12 - €30,4.5,,"Carrer Topazi, 8","Carrer Topazi, 08191 Rubí, Spain",41.4887215,2.0260119
8295,The Balmes -Local Food-,,€10 - €30,4.5,,Carrer Balmes 12,"Carrer Balmes, 12, 08110 Montcada i Reixac, Spain",41.4822892,2.185501
8296,Al Jaima,,€10 - €30,4.0,,"Carrer Valencia, 218","Carrer Valencia, 08770 Sant Sadurní d'Anoia, Spain",41.4281682,1.7826155
8297,Asian Restaurant,,€6 - €12,4.0,,C/Arc de San Agusti 5,"Catalonia, Spain",41.66667,2.0
8298,Restaurante A Canota,,"Seafood, Spanish, Mediterranean",3.5,,"Industria, 314-316","Carrer de la Indústria, 08470 Sant Celoni, Spain",41.6857285,2.4944574
8299,Taj Indian,,€10 - €20,4.0,,Carrer de Bailen 219,"Carrer de Bailèn, 219, 08037 BCN Barcelona, Spain",41.402787,2.1626462
8300,Mealisa,,€10 - €30,5.0,,Avinguda Diagonal 501,"Avinguda Diagonal, 501, 08021 Barcelona, Spain",41.3916214,2.1421566
8301,Wok Yutaka,,"Japanese, Seafood, Sushi, Asian, Chinese",3.5,,Calle Rossellon 307,"carrer Rossellón, 08110 Montcada i Reixac, Spain",41.480885,2.1887194
8302,Nostalgic Vermuteria,,,4.5,,Calle Viladomat 38,"Viladomat, Plaça de l'Ajuntament, 08698 la Nou de Berguedà, Spain",42.1671835,1.884449
8303,Gimlet,,"Dinner, Drinks",4.0,,Calle Santalo 46,"Carrer de Santaló, 08021 Barcelona, Spain",41.396429,2.1447797
8304,Dal Presidente,,€5 - €15,5.0,,"Carrer de Calabria, 93","Carrer de Calàbria, 93, 08015 Barcelona, Spain",41.3793637,2.1550963
8305,Elvira,,"French, Mediterranean, Spanish",4.5,,"Carrer Tordera, 10-12","Carrer Tordera, 08360 Canet de Mar, Spain",41.5917792,2.57999
8306,Vi & Beers,,"Spanish, Pub",4.5,,"Carrer de Blai, 45-47","Carrer de Blai, 08001 Barcelona, Spain",41.3729517,2.1664379
8307,La Picnic,,€5 - €15,4.5,,Ataulf,"Catalonia, Spain",41.66667,2.0
8308,La Taina,,"Steakhouse, Barbecue, Spanish",4.0,,Bruniquer 24,"Bruniquer, Carrer de Bruniquer, 08037 BCN Barcelona, Spain",41.4056088,2.1621684
8309,Lobito,,"Mediterranean, Spanish",4.5,,"Llauder 1,","Carrer de Llauder, CP 08003 Barcelona, Spain",41.3814839,2.1832606
8310,Restaurante Casa Ferreiro,,"Spanish, Mediterranean",4.0,,"Calle Riera Blanca, 6","Riera Blanca, 08540 Sant Martí de Centelles, Spain",41.7716838,2.2180366
8311,Casa Luz,,"Mediterranean, Spanish",5.0,,"Carrer de Bonavista, 10","Carrer de Bonavista, 10, 08012 Barcelona, Spain",41.3980625,2.1594651
8312,Restaurante Hotel Market,,€20 - €22,3.5,,"C/Conde Borrell, 68","Catalonia, Spain",41.66667,2.0
8313,Braseria Cal Ramon,,€14 - €37,4.0,,"Avenida Gaudi, 74","Avinguda d'en Gaudí, Mediona, Spain",41.4770176,1.6091548
8314,Restaurante Nou Sanllehy,,€10 - €20,4.5,,"Av. Mare de Deu de Montserrat, 22","Avinguda mare de Déu de Montserrat, 08397 Pineda de Mar, Spain",41.6250378,2.6861134
8315,Mussol Arago,,€15 - €25,3.5,,"Carrer Arago, 261","Carrer Aragó, 08870 Sitges, Spain",41.2387213,1.8155559
8316,Little Corea,,€10 - €25,4.5,,C/ Villarroel 107,"La Villarroel, Carrer de Villarroel, 87, 08011 Barcelona, Spain",41.3845152,2.1573507
8317,Taverna La Parra,,"Mediterranean, Barbecue, Spanish",3.5,,"c/ Joanot Martorell, 3","Carrer de Joanot Martorell, 08014 Barcelona, Spain",41.3744671,2.1410273
8318,Albi,,€8 - €20,4.0,,Av Francesc Ferrer i Guardia 13,"Catalonia, Spain",41.66667,2.0
8319,Xampanyeria la fusta,,Spanish,4.5,,C/Creus 12 08370 Calella,"Carrer de Santes Creus, 12, 08110 Montcada i Reixac, Spain",41.4826154,2.1683244
8320,Valmas Barcelona,,€17 - €190,4.0,,Carrer de Mallorca 235,"Carrer de Mallorca, 235, 8007 Barcelona, Spain",41.3920712,2.1597302
8321,Nico Pizzeria,,€2 - €10,4.0,,Gran de gracia 123,"Carrer Gran de Gràcia, 08012 Barcelona, Spain",41.4016856,2.1533142
8322,Alt Heidelberg,,"German, Bar, European, Central European",3.5,,Ronda de la Universitat 5,"Alt Heidelberg, Ronda de la Universitat, 5, 08007 Barcelona, Spain",41.386277,2.1652045
8323,Mucho Sake,,€10 - €50,4.5,,Carrer Rossello 556-558,"Carrer Rosselló, 08242 Manresa, Spain",41.7320892,1.8287143
8324,IL Giardinetto,,"Mediterranean, Italian",4.0,,"La Granada Del Penedes, 28","la Granada, Catalonia, Spain",41.3766679,1.7186912
8325,4 latas,,€15 - €30,4.0,,"Carrer de Muntaner, 211","Carrer de Muntaner, 211, 08011 Barcelona, Spain",41.3916473,2.1526632
8326,2D2Dspuma Cervezas Selectas,,"Fast Food, Pub",4.5,,Calle de La Manigua 8,"2D2Dspuma, Carrer de la Manigua, 8, 08027 Barcelona, Spain",41.4225474,2.1794557
8327,Rancho Burger,,€6 - €10,4.0,,"Carrer de Llull, 230","Carrer de Llull, 230, 08005 Barcelona, Spain",41.4024461,2.2048719
8328,O'novo Chispa,,€10 - €100,4.5,,"Carretera De La Bordeta, 26","Carretera de la Bordeta, 08014 Barcelona, Spain",41.3727768,2.1426638
8329,Tres Suenos,,,4.5,,Moll del Parc de la Pau,"la Pau, Catalonia, Spain",41.4231,2.20566
8330,Babol Burguer,,"American, Bar",4.0,,Antigua Ctra de Mataro 14,"Mataró, Catalonia, Spain",41.54211,2.4445
8331,Bar Restaurante Jardin,,€9 - €10,4.5,,"c/ Avila, 143","Àvila, Carrer d'Àvila, 08620 Sant Vicenç dels Horts, Spain",41.3995677,1.9989047
8332,Hanoi,,Thai,4.0,,"Placa Letamendi, 27","Plaça del Doctor Letamendi, l'Antiga Esquerra de l'Eixample, Barcelona, Catalonia, Spain",41.3888898,2.1609687
8333,Lindt Rambla Cataluna,,"Breakfast, Lunch, Dinner",4.5,,"Rambla de Catalunya, 86","Rambla de Catalunya, Barcelona, Spain",41.3906931,2.1639822
8334,Quiote Mezcaleria,,Mexican,5.0,,"Carrer de Calabria, 98","Bella Sushi, Carrer de Calàbria, 98, 08015 Barcelona, Spain",41.3794057,2.1556603
8335,Bar Paris,,€7 - €21,4.0,,Paris 187,"Paris, Carrer de Rios Rosas, 08801 Cornellà de Llobregat, Spain",41.358094,2.0894605
8336,Bodega Monumental Carrer Marina,,€20 - €60,4.0,,"Carrer de la Marina, 183","Carrer de la Marina, 183, 08013 Barcelona, Spain",41.3995678,2.1799103
8337,Piccolo,,Spanish,4.5,,"Calle Rocafort, 130","Carrer Rocafort, 08271 Artés, Spain",41.794838,1.9463363
8338,The Greenhouse,,€19 - €25,4.0,,"C. Bergara, 6-8","Hotel Catalonia Plaça Catalunya, Carrer de Bergara, 08007 Barcelona, Spain",41.3863262,2.1681968
8339,Mitte Restaurant,,€10 - €28,4.5,,Villarroel 106,"La Villarroel, Carrer de Villarroel, 87, 08011 Barcelona, Spain",41.3845152,2.1573507
8340,Voila Fast Good,,€5 - €12,5.0,,"Carrer Lleida, 33","carrer Lleida, Vilada, Spain",42.1385805,1.9344739
8341,Pinketts cocina&barra,,€10 - €35,5.0,,Rambla del Raval 43,"Rambla del Raval, Barcelona, Spain",41.3786363,2.1694027
8342,Bar Restaurante Victoria,,"Catalan, Spanish",3.5,,"Carrer dels Angels, 8","Carrer dels Angels, 08187 l'Ametlla del Vallès, Spain",41.6422147,2.2447735
8343,Cafe de L'Opera,,,3.5,,"La Rambla, 74","Tavertet, Catalonia, Spain",42.0135355,2.425772
8344,Nissaga,,€10 - €20,4.0,,Calle Escudellers,"Carrer dels Escudellers, 80002 Barcelona, Spain",41.3799218,2.1766799
8345,Nineteen 19,,"European, International, Mediterranean",4.5,,"Gran Via de Les Corts Catalanes, 668","Gran Via de les Corts Catalanes, 668-664, 08010 Barcelona, Spain",41.3915757,2.1715558
8346,Opium Barcelona,,€40 - €45,3.5,,"Paseo Maritimo de la Barceloneta, 34","la Barceloneta, Catalonia, Spain",41.3799,2.18971
8347,Cafe & Te,,€12 - €20,4.5,,"Calle Europa, 13","Carrer Europa, 08784 Piera, Spain",41.5250377,1.7533454
8348,The Haissala's,,€8 - €15,5.0,,Ronda General Mitre 220,"Ronda del General Mitre, 08022 Barcelona, Spain",41.4027707,2.1379369
8349,La Biennal,,"Mediterranean, European, Spanish",3.5,,"Rambla Poblenou, 76","Rambla Poblenou, Rambla del Poblenou, 08018 Barcelona, Spain",41.4046882,2.1967694
8350,Lizarran,,"Mediterranean, Spanish, Diner",4.0,,Comte De Urgell 92,"Carrer del Comte d'Urgell, 08100 Mollet del Vallès, Spain",41.5423892,2.211242
8351,D’Aprop,,€14 - €32,4.0,,"Carrer Trafalgar, 26","Carrer Trafalgar, 08340 Vilassar de Mar, Spain",41.5041301,2.387879
8352,Casa Almirall,,"Bar, Spanish, Pub",4.0,,Joaquin Costa 33,"Carrer de Joaquín Costa, 08338 Premià de Dalt, Spain",41.5010455,2.3584167
8353,Cuina de Mercat,,"Mediterranean, Spanish",4.0,,"Passeig de Fabra i Puig, 148","Passeig de Fabra i Puig, 08031 Barcelona, Spain",41.4303053,2.1755374
8354,9 Reinas Gourmet,,"Argentinean, Steakhouse, South American",4.0,,"C/ Ganduxer, 28","Carrer de Ganduxer, 28, 08021 Barcelona, Spain",41.3936996,2.138697
8355,Ahumar Cuina & Art,,€4 - €12,5.0,,Lancaster 20,"Carrer de Lancaster, 20, 08001 Barcelona, Spain",41.3782428,2.1747265
8356,Buenas Migas,,"Cafe, Fast Food, Spanish, Italian",4.5,,Sant Josep Pla 120 Polygon,"Catalonia, Spain",41.66667,2.0
8357,Frankfurt Valles,,"German, Fast Food",4.0,,"Gran de Gracia, 84","Carrer Gran de Gràcia, 08012 Barcelona, Spain",41.4016856,2.1533142
8358,Essence at Espaisucre,,European,4.0,,Calle Sant Pere Mes Alt 72,"Carrer Sant Pere Més Alt, 08301 Mataró, Spain",41.5414289,2.4448454
8359,Restaurante Xerinola,,Seafood,4.0,,"La Rambla, 96","La Rambla, 96, 80002 Barcelona, Spain",41.3823568,2.1724339
8360,Kobu - Poble Sec,,"Japanese, Sushi, Asian",4.0,,"Carrer del Poeta Cabanyes, 19","The Tatami Room, Carrer del Poeta Cabanyes, 19, 08001 Barcelona, Spain",41.3741468,2.1656821
8361,Restaurante Bona Sort,,€20 - €25,3.5,,Carrer Carders N_ 12,"Catalonia, Spain",41.66667,2.0
8362,Deleit Sushi,,"Japanese, Sushi, Asian",4.0,,Travessera de Les Corts 220,"Cafè & Teca, Travessera de les Corts, 220, 08014 Barcelona, Spain",41.3842153,2.1312225
8363,El Celler del Vermut,,€15 - €35,4.0,,Calle Lepanto 239,"Carrer Lepanto, 08210 Barberà del Vallès, Spain",41.510551,2.1252448
8364,Negronix Bar Cocktails & Street Food,,€10 - €20,4.5,,Trinxant,"Carrer de Trinxant, 08026 Barcelona, Spain",41.4152231,2.184695
8365,El Jardi de l'Abadessa,,€22 - €65,3.5,,"Abadessa Olzet, 26","Catalonia, Spain",41.66667,2.0
8366,Mon Plaisir BCN,,€9 - €35,4.5,,Calle enrique granados 72,"Catalonia, Spain",41.66667,2.0
8367,La Chapelle,,Serves Alcohol,4.0,,"Carrer Muntaner, 67","Muntaner, Via Augusta, 08021 Barcelona, Spain",41.3986188,2.1428749
8368,La Jacaranda del Passatge,,€10 - €35,4.5,,Passatge de Lluis Pellicer 6,"Passatge Lluis Pellicer, 08036 Barcelona, Spain",41.3927545,2.1490444
8369,Restaurante Bidasoa,,"Spanish, Mediterranean",4.0,,"Serra, 21","La Masieta, Sant Pere de Ribes, Catalonia, Spain",41.2556378,1.7534102
8370,Medusa Restaurant,,€14 - €500,4.5,,Gran Via de Les Corts Catalanes 596,"L'Oliva, Gran Via de les Corts Catalanes, 596, 08007 Barcelona, Spain",41.3865549,2.164941
8371,El quatre,,Spanish,4.0,,Ricardo Calvo 4,"El Quatre, Carrer de Ricardo Calvo, 4, 08022 Barcelona, Spain",41.4031267,2.1333762
8372,Medina,,€4 - €30,4.5,,Carrer Tossal 1,"el Tossal, 08698 la Nou de Berguedà, Spain",42.1661742,1.877011
8373,Bar Sanz,,Spanish,4.5,,"Carrer Del General Alvarez de Castro, 5","Carrer del General Álvarez de Castro, 08003 Barcelona, Spain",41.3867664,2.1782182
8374,El Rincon Criollo,,€9 - €25,4.0,,Passeig Sant Joan 72,"passeig del Riu, 08250 Sant Joan de Vilatorrada, Spain",41.7399116,1.8066353
8375,Hula Poke Food - SAGRADA FAMILIA,,€9 - €12,5.0,,Calle Valencia 441,"Carrer Valencia, 08770 Sant Sadurní d'Anoia, Spain",41.4281682,1.7826155
8376,Vita Gastrobar,,"Spanish, European",4.0,,Carrer de Verdi 31,"Vita Gastrobar, Carrer de Verdi, 31, 08012 Barcelona, Spain",41.4038498,2.1568046
8377,Five Guys - La Maquinista,,€3 - €13,4.0,,"Carrer de Potosi, 2","Carrer de Potosí, 2, 08030 Barcelona, Spain",41.4427541,2.2002297
8378,Nou Mediterrani,,€7 - €37,4.0,,Ronda Sant Pere 42,"Ronda Sant Pere, Plaça de Catalunya, 08010 Barcelona, Spain",41.3877901,2.1705608
8379,Ramen Kuma,,€9 - €20,4.5,,Calle sardenya 178,"Carrer Sardenya, 08192 Sant Quirze del Vallès, Spain",41.5298238,2.0708297
8380,Laie Libreria Cafe,,"Cafe, Mediterranean, European, Spanish",4.0,,C/Pau Claris 85,"Pau Claris, Gran Via de les Corts Catalanes, 08007 Barcelona, Spain",41.3897269,2.1688642
8381,Ivy Resto Lounge,,€20 - €60,4.0,,"Carrer d'Aribau, 242","Mandoca, Carrer d'Aribau, 242, 08021 Barcelona, Spain",41.395879,2.1496328
8382,El Pibe,,€8 - €12,4.0,,"Rambla del Poblenou, 41","Rambla del Poblenou, Barcelona, Spain",41.3983595,2.2048509
8383,D'street Poke & Bowls,,"International, Healthy, Hawaiian, Venezuelan, South American",5.0,,Carrer Sabino Arana 36,"Catalonia, Spain",41.66667,2.0
8384,Bar Potitos,,"Spanish, Mediterranean",4.0,,Calle Colomines 8,"Carrer de la Volta d'en Colomines, CP 08003 Barcelona, Spain",41.3845363,2.1791545
8385,Restaurant La Cantina De Llinars,,Spanish,4.5,,Carretera BV-42141,"Catalonia in miniature, BV 2005 - Carretera de Torrelles, 08629 Torrelles de Llobregat, Spain",41.3585892,1.985538
8386,Tian fu,,"Japanese, Sushi, Asian",4.0,,"Carrer de Corsega, 610","Restaurant Japonés Tian Fu, Carrer de Còrsega, 610, 08025 Barcelona, Spain",41.4091985,2.1763844
8387,Tiki Poke,,€9 - €12,4.0,,Avenida Diagonal 535,"Avinguda Diagonal, 535, 08008 Barcelona, Spain",41.3870664,2.1240637
8388,Kaguya-Hime,,"Japanese, Sushi, Asian",4.0,,c/Bailen 221,"Carrer de Provença, Bailèn, 08037 Barcelona, Spain",41.3990806,2.1675307
8389,Gamba de La Costa,,"Mediterranean, Seafood, Spanish",4.0,,"Carrer Roger de Flor, 252","Carrer Roger de Flor, 08924 Santa Coloma de Gramenet, Spain",41.4632118,2.2080004
8390,Antic Cafe Espanyol,,"Mediterranean, European, Spanish, Catalan",3.5,,Avinguda Del Paral.lel 64,"Catalonia, Spain",41.66667,2.0
8391,Restaurante Bonanova,,€46 - €91,4.0,,"Sant Gervasi de Cassoles, 103","08022 Barcelona, Spain",41.4033293,2.1377791
8392,Restaurant Pulitzer,,"Vegetarian Friendly, Vegan Options",4.0,,Bergara 8,"Carrer de Bergara, 08007 Barcelona, Spain",41.3862584,2.1684109
8393,Bar Mudanzas,,"Mediterranean, Spanish",4.0,,C/ Vidrieria 15,"Carrer de la Vidrieria, CP 08003 Barcelona, Spain",41.384061,2.1830025
8394,Bao's,,€5 - €18,5.0,,Carrer de la Independencia 258,"Carrer de la Independència, 8025 Barcelona, Spain",41.4086204,2.1822942
8395,Barraca,,€25 - €45,3.5,,"Paseo Maritim Barceloneta, 1","Pg Maritim - Almirall Cervera, Passeig Marítim de la Barceloneta, 08 Barcelona, Spain",41.3791943,2.1922895
8396,Locorotondo,,"Italian, Pizza, Mediterranean, European, Gastropub",4.0,,Passeig Del Taulat 183,"Passeig del Taulat, 08019 Barcelona, Spain",41.4093534,2.2175438
8397,"La Tagliatella C.C. Las Arenas, Barcelona",,€15 - €17,3.5,,"C/ Gran Via de les Corts Catalanes, 373-385","Veritas, Gran Via de les Corts Catalanes, 373-385, 8015 Barcelona, Spain",41.3761395,2.1493475
8398,The Chipiron,,,3.5,,Maremagnum. Moll D_Espanya (Port Vell),"Maremagnum, Moll d'Espanya, 72 Barcelona, Spain",41.3757235,2.1823813
8399,7 Lunas Bar Restaurant,,€8 - €80,4.5,,"Pg. Doctor Pi i Molist, 122","Catalonia, Spain",41.66667,2.0
8400,Colella Restaurant,,€20 - €70,4.0,,"Carrer de Pau Claris, 190","Restaurant Pau Claris 190, Carrer de Pau Claris, 190, 08037 Barcelona, Spain",41.3965987,2.1621672
8401,Comico-Comico,,Mediterranean,4.0,,Calle Aribau 87,"Aribau, 08204 Sabadell, Spain",41.5283818,2.1105725
8402,Balius Bar,,€15 - €25,4.0,,Pujades 196,"Carrer de Pujades, Pujades, 08005 Barcelona, Spain",41.3954862,2.1926725
8403,Brooklyn Cafe,,Cafe,4.0,,Carrer Europa 28,"Carrer Europa, 08784 Piera, Spain",41.5250377,1.7533454
8404,La Tagliatella,,"Italian, Pizza, European",3.5,,"Avinguda Diagonal, 208","Glòries Multicines, Avinguda Diagonal, 208, 08018 Barcelona, Spain",41.4053714,2.1928801
8405,Restaurante Lagunak,,"Spanish, Mediterranean, European",4.0,,"Berlin, 19-21","Berlín, Carrer de Berlín, 55, 59, 08029 Barcelona, Spain",41.3834874,2.1392727
8406,La Picoesquina,,Spanish,5.0,,Carrer dels Canvis Vells 8,"Carrer dels Canvis Vells, CP 08003 Barcelona, Spain",41.3830148,2.1820758
8407,Masedy Restaurant & Lounge,,€8 - €25,4.0,,Av. Madrid 171,"Avenida Madrid, Carrer de Lluçà, 08014 Barcelona, Spain",41.380869,2.1312591
8408,Amiette Gluten Free Bakery,,European,5.0,,Calabria 65,"Carrer de Calàbria, 65, 08015 Barcelona, Spain",41.3781198,2.1567442
8409,Mamarosa Beach Restaurant,,,3.5,,"Passeig Mare Nostrum, 19-21","Passeig Mare Nostrum, Pez Vela Chiringuito, 19-21, 08039 Barcelona, Spain",41.3691463,2.1899766
8410,Pizza Paco,,"Italian, Pizza",3.5,,Carrer Allada Vermell 11,"Catalonia, Spain",41.66667,2.0
8411,palosanto,,Spanish,4.5,,Avinyo 30,"Avinyó, Catalonia, Spain",41.8630096,1.9707409
8412,Su'Entu,,"Mediterranean, Contemporary, Spanish",5.0,,Carrer d'Amilcar 134 bis,"Carrer d'Amílcar, 08031 Barcelona, Spain",41.4265172,2.172363
8413,Otro Romero,,€5 - €25,4.5,,"Calle Pallars, 220","Carrer Pallars, 08756 Cervelló, Spain",41.4064896,1.9547584
8414,Punta Anguila,,€20 - €30,4.5,,C/ Figols 47,"Fígols, Catalonia, Spain",42.1809467,1.8366637
8415,Foxos taberna gallega,,"Mediterranean, Spanish",4.0,,Gran Via Dels Corts Catalanes 1095,"Catalonia, Spain",41.66667,2.0
8416,Bodega Santo Porcello,,€12 - €25,4.5,,"Carrer de Sepulveda, 151","Carrer de Sepúlveda, 151, 08011 Barcelona, Spain",41.3823887,2.1611038
8417,Snack Bar Bassy,,€11 - €28,4.0,,Cablaria 230 Esquina Viladomat,"Catalonia, Spain",41.66667,2.0
8418,Tio Papelon,,€3 - €12,4.5,,Sicilia 247,"Sicília, Rambla del Fondo, 08922 Santa Coloma de Gramenet, Spain",41.4514955,2.2174059
8419,Taverna Oniric,,€15 - €30,4.5,,"Carrer de la Industria, 79","Alkimia, Carrer de la Indústria, 79, 08025 Barcelona, Spain",41.4056012,2.16892
8420,Aqui Hi Ha Molla,,"Cafe, European, Spanish, Healthy, Mediterranean",4.5,,"C/ Sardenya, 51","Sardenya, Carrer de Sardenya, 08088 Barcelona, Spain",41.4036868,2.1730622
8421,Cantina 10 by Dos Santos,,€12 - €18,4.0,,Casanova 262,"Avinyó, Catalonia, Spain",41.8799485,1.9562008
8422,El Milagrito,,Vegetarian Friendly,4.5,,Carrer Carme 19,"Carrer Carme, 08758 Cervelló, Spain",41.3924763,1.9807778
8423,La Sedici,,"Italian, Pizza",5.0,,"Placa del Sol, 9-10","Plaça del Sol, 08940 Cornellà de Llobregat, Spain",41.3646812,2.076018
8424,216 Grammi Barcelona,,,4.5,,Carrer de Joan Miro 24,"Fando Reynes, Carrer de Joan Miró, 24, 0805 Barcelona, Spain",41.3911249,2.1941571
8425,El Canalla,,€20 - €35,3.5,,"Major de Sarria, 95","Carrer Major de Can Caralleu, 08017 Barcelona, Spain",41.4020258,2.1116018
8426,Kao Dim Sum,,Chinese,3.5,,"Carrer Del Bisbe Sivilla, 48","carrer del Bisbe Sivilla, 08370 Calella, Spain",41.6135058,2.6575028
8427,Lio de 4,,"Mediterranean, Spanish",4.0,,Carrer Mandri 22,"Carrer de Mandri, 08022 Barcelona, Spain",41.4015926,2.135606
8428,Pacifico y Sur,,"Peruvian, Latin, Fusion",4.0,,"Carrer de Vallhonrat, 19","Carrer de Vallhonrat, 8015 Barcelona, Spain",41.3739796,2.156947
8429,Restaurante cafeteria Brasilia,,,4.5,,Avg. Diagonal 338,"Catalonia, Spain",41.66667,2.0
8430,Restaurante Can Roca,,"Spanish, Mediterranean",4.0,,"Calle Gran De Sant Andreu, 209","Carrer Gran de Sant Andreu, 209, 08030 Barcelona, Spain",41.4337255,2.18932
8431,Himalaya,,€9 - €20,4.0,,Caspe 150,"Catalonia, Spain",41.66667,2.0
8432,Al Punt,,"Steakhouse, Mediterranean, Spanish, Argentinean, European",3.5,,"Carrer de Girona, 51","Carrer de Girona, 51, 08380 Malgrat de Mar, Spain",41.6485714,2.742829
8433,Pacha Barcelona Restaurant,,"Sushi, European, Spanish, Mediterranean",4.0,,"Paseo Maritimo Barceloneta, 38","la Barceloneta, Catalonia, Spain",41.3799,2.18971
8434,Gandhi Restaurant,,€20 - €40,3.5,,Calle Balmes 21,"Carrer Balmes, 21, 08110 Montcada i Reixac, Spain",41.4817812,2.1856515
8435,Flamant Restaurant,,,3.5,,"Enrique Granados, 23","Catalonia, Spain",41.66667,2.0
8436,Bomboneria Pons,,Dinner,4.5,,"Calle Olzinelles 78,","08470 Olzinelles, Spain",41.6618101,2.5257548
8437,Boko,,€15 - €35,4.0,,Ronda General Mitre 169,"Ronda del General Mitre, 08022 Barcelona, Spain",41.4027707,2.1379369
8438,King Kong Lady,,,4.0,,Gran Via de les Corts Catalanes 700,"Gran Via de les Corts Catalanes, 700, 08010 Barcelona, Spain",41.393611,2.1742789
8439,Hotel NH Collection Barcelona Podium Restaurant,,€24 - €40,4.5,,"Carrer de Bailen, 4 6","Carrer de Bailèn, 4, 08010 Barcelona, Spain",41.3914049,2.1781377
8440,Melosa,,€10 - €25,4.0,,"Calle Clot, 163","el Clot, Barcelona, Catalonia, Spain",41.4099525,2.1908234
8441,Vegetart Cuina Vegana,,"Vegetarian Friendly, Vegan Options",4.5,,Torrent de L'Olla 138,"Torrent de l'Olla, Carrer del Torrent de l'Olla, 221, 08012 Barcelona, Spain",41.4066828,2.1518689
8442,Bow,,€2 - €14,4.5,,"Roger de Lluria, 46","Roger De Lluria, Carrer de Roger de Llúria, 08010 Barcelona, Spain",41.3910629,2.1718498
8443,Auto Rosellon,,"Mediterranean, European, Spanish",3.5,,Carrer Rossello 182,"Carrer Rosselló, 08242 Manresa, Spain",41.7320892,1.8287143
8444,Mirinda,,"Bar, Cafe, Mediterranean, Spanish, European",4.0,,"Xucla, 7","Xuclà, Carrer Major, 100, 08750 Molins de Rei, Spain",41.4134452,2.0163979
8445,El Bar del Paco (duplicado),,Spanish,4.5,,"Placa de la Font, 1","El Paco, Plaça de la Font, 1, 08 Barcelona, Spain",41.3806296,2.1888299
8446,La Panada,,"Latin, Fast Food, Spanish, Argentinean, South American",4.5,,"Avinguda Gaudi, 72","Avinguda d'en Gaudí, Mediona, Spain",41.4770176,1.6091548
8447,Taco Alto,,,4.5,,"Ronda Universitat, 12","Ronda Universitat, Carrer de Pelai, 08007 Barcelona, Spain",41.3859863,2.1652431
8448,Nea pizzeria,,€2 - €18,5.0,,Pontevedra 25,"Carrer de Pontevedra, 72 Barcelona, Spain",41.3775079,2.190532
8449,Tian Fu Muntaner,,€10 - €12,4.5,,Carrer Muntaner 189,"Muntaner, Via Augusta, 08021 Barcelona, Spain",41.3986188,2.1428749
8450,Els Pescadors,,"Seafood, Mediterranean, Spanish, Soups, Catalan",3.5,,Placa Prim 1,"08259 Rajadell, Spain",41.7463479,1.6840264
8451,KOH,,"Asian, Japanese",4.0,,"Pujades, 133","Carrer de Pujades, Pujades, 08005 Barcelona, Spain",41.3954862,2.1926725
8452,Restaurante Japones Mikasa,,"Japanese, Asian",4.0,,Carrer del Comte Borrell 145,"Carrer del Comte Borrell, 145, 08015 Barcelona, Spain",41.3816803,2.1564888
8453,Bisi Bisau,,"Healthy, Mediterranean, European, Spanish",4.5,,Llucanes 2-4,"Carretera de Prats de Lluçanès, 08207 Sabadell, Spain",41.5747319,2.0939871
8454,130 Restaurante,,€30 - €40,4.5,,Carrer de Laforja 130,"Carrer de Laforja, 08006 Barcelona, Spain",41.4003898,2.151314
8455,A mi manera,,Spanish,5.0,,Carrer de Parlament 15,"Catalonia, Spain",41.66667,2.0
8456,Ramen Suita,,"Japanese, Asian, Soups",4.0,,Calle Principe Jordi 6,"Catalonia, Spain",41.66667,2.0
8457,MasQMenos Las Arenas,,"Bar, Spanish, European",3.5,,"Gran Via de Les Corts Catalanes, 373-385","Veritas, Gran Via de les Corts Catalanes, 373-385, 8015 Barcelona, Spain",41.3761395,2.1493475
8458,3 Nusos Restaurant,,€30 - €50,3.5,,"Carrer d_Escar, 16","Catalonia, Spain",41.66667,2.0
8459,Mondo Restaurante,,€12 - €20,4.5,,C/Aribau 159,"Aribau, 08204 Sabadell, Spain",41.5283818,2.1105725
8460,100 Montaditos,,"European, Fast Food",4.0,,"Rambla Del Raval, 41","Rambla del Raval, Barcelona, Spain",41.3786363,2.1694027
8461,Masaya,,"Japanese, Sushi, Asian",4.0,,"Calle Bisbe Sivilla, 42","Carrer de Bisbe Sivilla, 08022 Barcelona, Spain",41.4045311,2.1349737
8462,Bio Bento,,Healthy,4.5,,Ermengarda 34,"Catalonia, Spain",41.66667,2.0
8463,Restaurante Marisqueria Dopazo,,€15 - €40,4.5,,08030,"08030 Barcelona, Spain",41.438185,2.1871252
8464,Atlantis Gastrobar,,"Lunch, Dinner",5.0,,"Carrer del Marques de Campo Sagrado, 12","Carrer del Marquès de Campo Sagrado, 08001 Barcelona, Spain",41.3758919,2.1640986
8465,Els Barrils,,"Seafood, Mediterranean, European, Spanish",4.0,,"Aribau, 89","Aribau, 08204 Sabadell, Spain",41.5283818,2.1105725
8466,Restaurant Zian,,"Mediterranean, European",4.0,,Calle Comte d'Urgell N0 66,"Carrer Comte d'Urgell, 08859 Begues, Spain",41.3296319,1.9331417
8467,Ginos,,€9 - €15,3.5,,"Via Laietana, 71","Via Laietana, 71, 08003 Barcelona, Spain",41.3882756,2.1728529
8468,Museo Maritim de Barcelona - Lonja de San Cristobal,,"Mediterranean, Spanish",4.0,,"Avda. de las Drassanes, s/n","Catalonia, Spain",41.66667,2.0
8469,Tot 1 Euro,,"Bar, Cafe, Pub",4.5,,"Carrer D'aribau, 15","1 Euro Bar, Carrer d'Aribau, 15, 080007 Barcelona, Spain",41.3865716,2.1614916
8470,Ottavio barcelona,,"Mediterranean, Spanish, European",4.0,,"Avenida diagonal , 3","Foster’s Hollywood, Avinguda Diagonal, 3, 08021 Barcelona, Spain",41.3921,2.14477
8471,Le Petit Paris,,€7 - €14,4.0,,"Carretera del Prat, 30","Carretera del Prat, 08908 Barcelona, Spain",41.3631894,2.1361007
8472,Refresca Tea - El Born,,€2 - €5,5.0,,Carrer Carders 25,"Carrer dels Carders, 08204 Sabadell, Spain",41.5282016,2.1129728
8473,MONO Risto-Bar,,€6 - €15,4.5,,Calabria 80,"Carrer de Calàbria, 80, 08015 Barcelona, Spain",41.3790222,2.1562703
8474,Restaurante El Cafeti,,"Mediterranean, European, Spanish, Catalan",4.0,,"Sant Rafael, 18","Sant Rafael, Carrer de Sant Antoni Maria Claret, 08025 BARCELONE Barcelona, Spain",41.4129098,2.1749297
8475,La Biga,,€7 - €18,4.5,,"Carrer Del Clot, 137","Carrer del Clot, 08026 Barcelona, Spain",41.4164135,2.1914015
8476,Las Hermanas de los Ancares,,€9 - €25,5.0,,Jaume Roig 17,"Carrer de Jaume Roig, 08028 Barcelona, Spain",41.3764542,2.1259525
8477,Bar El Tropezon,,€6 - €14,3.5,,"Regomir, 26","El Tropezón, Carrer del Regomir, 26, 08002 Barcelona, Spain",41.3810436,2.1800329
8478,Nanaya Josep Tarradellas,,"Japanese, Sushi, Asian",4.5,,Avenida Josep Tarradellas 157,"Avinguda Josep Tarradellas, 08840 Viladecans, Spain",41.3124257,2.0159275
8479,Restaurante L'Olive,,Spanish,4.5,,"Carrer Balmes, 47","Carrer Balmes, Ripollet, Spain",41.4942494,2.1597027
8480,Vitali Pizza,,€7 - €25,4.0,,"Calle Paris, 109","Carrer París, Calaf, Spain",41.7345229,1.5129803
8481,Mamy Ildy Barcelona,,€9 - €20,4.0,,Calle Floridablanca 148,"Carrer Floridablanca, 08301 Mataró, Spain",41.5390542,2.4534399
8482,D Gas Bar,,"Spanish, Bar, Mediterranean, European, Deli, Pub, Gastropub",4.5,,C/ Bon Pastor 6,"Bon Pastor, Carrer de Sant Adrià, 05030 Barcelona, Spain",41.4361096,2.2048066
8483,Santa Piadina,,€3 - €6,4.0,,"Plaza Sant Pere , 11","Viver i Serrateix, Catalonia, Spain",41.9268784,1.8078368
8484,Restaurant Ginesta,,"Mediterranean, Spanish",4.5,,"Carrer de l'Harmonia, 2","Carrer de l'Harmonia, 2, 08035 Barcelona, Spain",41.434131,2.1441996
8485,Las Muns Urquinaona,,€2 - €11,4.5,,Ronda Sant Pere 27,"Ronda Sant Pere, Plaça de Catalunya, 08010 Barcelona, Spain",41.3877901,2.1705608
8486,Tomate,,"Mediterranean, Spanish",4.0,,Valencia 225,"Valencia, Carrer de València, 08291 Ripollet, Spain",41.4943576,2.1695649
8487,Cala Blanca,,"Spanish, European",4.0,,"C/ Doctor Trueta, 211","Plaça del Doctor Trueta, 08630 Abrera, Spain",41.5166714,1.9012139
8488,Los Caracoles,,,3.5,,"Calle de los Escudellers, 14","Catalonia, Spain",41.66667,2.0
8489,Equilibri Bcn,,,4.5,,"Carrer de Sardenya, 404","Carrer de Sardenya, 404, 08088 Barcelona, Spain",41.4066731,2.1692441
8490,Ancestral Bar,,"Spanish, European",4.5,,"Carrer de Provenca, 340","Ancestral, Carrer de Provença, 340, 08037 Barcelona, Spain",41.397747,2.1656448
8491,Frankfurt Sant Jaume,,Fast Food,4.5,,"Placa de Sant Jaume, 2","Sant Jaume Square, Barcelona, Spain",41.3826497,2.1769912
8492,M2 Gluten Free,,€9 - €25,4.0,,Avenida Diagonal 505,"Avinguda Diagonal, 505, 08021 Barcelona, Spain",41.3914654,2.1417489
8493,Izarra,,€28 - €55,4.5,,"Sicilia, 135","Sicília, Rambla del Fondo, 08922 Santa Coloma de Gramenet, Spain",41.4514955,2.2174059
8494,Ikki Bcn,,€9 - €30,4.5,,Carrer de Cabanes 23,"Carrer de Cabanes, 08001 Barcelona, Spain",41.3719047,2.169407
8495,O'Marulo,,€6 - €32,4.0,,Ortigosa 10,"Ortigosa, Carrer d'Ortigosa, 7, 08010 Barcelona, Spain",41.3882279,2.1748107
8496,Cabo Bar,,€20 - €35,4.5,,Calle Marina 124,"carrer marina, 08339 Vilassar de Dalt, Spain",41.5113131,2.3574845
8497,La Llauneta del Guinardo,,"Mediterranean, Spanish",4.5,,"Renaixenca, 22 bis","Carrer de la Renaixença, 08041 Barcelona, Spain",41.4179189,2.1770817
8498,Yogi Bar Restaurante,,Indian,4.5,,Calle Rocafort 185,"Carrer Rocafort, 08271 Artés, Spain",41.794838,1.9463363
8499,Adil Tandoori Restaurant Bar,,"Pakistani, Indian, Asian",4.0,,"Carre de l'Est, 9","Catalonia, Spain",41.66667,2.0
8500,Luris II,,€10 - €20,3.5,,Pau Claris 139,"Pau Claris, Gran Via de les Corts Catalanes, 08007 Barcelona, Spain",41.3897269,2.1688642
8501,Le Pain d'Eric et Benjamin,,"French, Mediterranean",5.0,,Consell de Cent 348,"Consell de Cent, Carrer del Consell de Cent, 8015 Barcelona, Spain",41.3754015,2.143262
8502,El Mirador del Carmelo,,Spanish,4.5,,Calle Pasteur 1,"Carrer de Pasteur, 08032 Barcelona, Spain",41.4178032,2.1601235
8503,El Cafe De L'Eixample,,€5 - €14,4.5,,"Carrer de Lepant, 276","Carrer de Lepant, 276, 08013 Barcelona, Spain",41.4043231,2.1769969
8504,Santos Tapas,,"Mediterranean, Spanish, European",4.0,,Placeta Del Pi 6,"Santos Tapas, Placeta del Pi, 6, 80002 Barcelona, Spain",41.3818515,2.1745137
8505,Moka Restaurant Cafeteria,,€12 - €25,3.5,,Ramblas 126,"Hotel chic&basic Ramblas, Passatge de Gutenberg, 7, 08001 Barcelona, Spain",41.3770098,2.1748842
8506,Nanaya,,"Japanese, Sushi, Asian",4.0,,"Avinguda Diagonal, 173","Nanaya, Avinguda Diagonal, 173, 08018 Barcelona, Spain",41.404967,2.1945963
8507,Ilya Restaurant,,€10 - €25,5.0,,"Rambla del Raval, 8","Rambla del Raval, Barcelona, Spain",41.3786363,2.1694027
8508,Extra Bar,,"Mediterranean, Spanish",4.5,,"Carrer del Torrent de l'Olla, 79","Carrer del Torrent de l'Olla, 08012 Barcelona, Spain",41.4029082,2.1563105
8509,Yellow Door,,€5 - €60,5.0,,"Carrer d'Aribau, 179","Carrer d'Aribau, 179, 08036 Barcelona, Spain",41.3940484,2.1517271
8510,Restaurante Sant Gervasi,,,4.5,,"Carrer Dels Madrazo 68, 70","Carrer dels Madrazo, 08006 Barcelona, Spain",41.4012893,2.1503926
8511,Can Punyetes,,"Barbecue, Spanish, Mediterranean",4.0,,"Calle Francesc Giner, 8-10","Catalonia, Spain",41.66667,2.0
8512,Casa Palet Glories,,"Spanish, Mediterranean, European",4.0,,"Avda. Diagonal 208, El Mercat","Mercat, 08195 Sant Cugat del Vallès, Spain",41.4670864,2.0582303
8513,Buen Bocado,,"Middle Eastern, Fast Food",4.5,,C/ Escudellers 31,"Carrer dels Escudellers, 80002 Barcelona, Spain",41.3799218,2.1766799
8514,La Chelinda,,€8 - €18,4.0,,Avinguda Diagona 3,"Catalonia, Spain",41.66667,2.0
8515,Super Coffee & Food,,"Cafe, International, Mediterranean, Healthy",5.0,,"Carrer Bruc, 8","Carrer Bruc, 08600 Berga, Spain",42.0969144,1.8390387
8516,Zizinia,,€3 - €12,5.0,,Carrer Torrent de les Flors 87,"Catalonia, Spain",41.66667,2.0
8517,El Raco Maremagnum,,€8 - €25,4.5,,Moll d'Espanya 5,"Moll d'Espanya, Gothic Quarter, Barcelona, Catalonia, Spain",41.3790967,2.1834962
8518,El All i Oli,,"Mediterranean, Spanish",3.5,,Calle Alella 3,"Alella, Catalonia, Spain",41.4952867,2.2942758
8519,Dalt de tot,,"Mediterranean, Spanish",4.5,,Saragossa 66,"Carrer de Saragossa, 66, 08006 Barcelona, Spain",41.4037573,2.1466855
8520,Dip Dumpling,,Asian,5.0,,Ramon y cajal 61,"Plaça Ramón y Cajal, el Masnou, Spain",41.4863941,2.3114575
8521,Txapela,,"Bar, Mediterranean, European, Spanish, Catalan",3.5,,"Paseo de Gracia, 8","Catalonia, Spain",41.39155,2.16564
8522,Hetta Cuisine,,€40 - €50,4.0,,Pasaje Marimon 5,"Passatge de Marimon, 08036 Barcelona, Spain",41.3947535,2.1475809
8523,Las Vermudas -Sant Antoni,,"Seafood, Spanish",5.0,,Carrer de Calabria 39,"La Garrafa, carrer de Calàbria, 39, 08530 la Garriga, Spain",41.686874,2.2858846
8524,Bonita Bar Barcelona,,€5 - €20,4.5,,Carrer L'Almirall Churruca 6,"Carrer de l'Almirall Churruca, 08 Barcelona, Spain",41.3784394,2.1899711
8525,Casa Dario,,€30 - €121,4.0,,"Consell de Cent, 256","Consell de Cent, Carrer del Consell de Cent, 8015 Barcelona, Spain",41.3754015,2.143262
8526,Kinza,,€5 - €35,4.5,,"Carrer dels Banys Vells, 15","Carrer dels Banys Vells, CP 08003 Barcelona, Spain",41.3842781,2.181061
8527,Federal Cafe Parlament,,,3.5,,Calle Parlament 39 08015,"08015, Spain",41.3888,2.159
8528,La Burguesa La Maquinista,,"American, Fast Food",4.0,,Paseo Potosi 2,"Potosí, 08922 Santa Coloma de Gramenet, Spain",41.4431877,2.2068058
8529,Pulperia Can Lampazas Buenos Aires,,€25 - €35,4.0,,"Carrer Buenos Aires, 2","Carrer Buenos Aires, 08395 Sant Pol de Mar, Spain",41.6030343,2.6242583
8530,Redrum Cantina Mexicana,,€5 - €9,4.5,,"Carrer de Margarit, 36","Carrer de Margarit, 08001 Barcelona, Spain",41.3743863,2.1638374
8531,El Flako,,€2 - €7,4.0,,c/ Canvis Nous 8,"Carrer dels Canvis Nous, CP 08003 Barcelona, Spain",41.3828642,2.181639
8532,Bar Zodiaco,,,4.0,,"Margarit, 17","Camí de Cal Margarit, Castellví de la Marca, Spain",41.3306646,1.5872768
8533,Habibi Restaurant Shisha Bar,,"Lebanese, Moroccan, Middle Eastern",4.0,,"La Ramblas, 75","Hotel chic&basic Ramblas, Passatge de Gutenberg, 7, 08001 Barcelona, Spain",41.3770098,2.1748842
8534,Luna de Istanbul,,Turkish,4.0,,"Carrer Nou de la Rambla, 1","Carrer Nou de la Rambla, 08001 Barcelona, Spain",41.3749609,2.1700292
8535,Martinez,,,3.5,,"Carretera de Miramar, 38","Martínez, Carretera de Miramar, 38, 08038 Barcelona, Spain",41.3696101,2.1724558
8536,Koyuki,,"Japanese, Sushi, Asian",4.0,,"Corsega, 242","Còrsega, 08192 Sant Quirze del Vallès, Spain",41.5294463,2.0700326
8537,Cerveceria 100 Montaditos,,"Bar, Fast Food, Spanish, Pub",4.0,,Avinguda Paral.lel 69,"Catalonia, Spain",41.66667,2.0
8538,Tivoli 1940,,,4.0,,Muntaner 361,"el Muntaner, Sobremunt, Catalonia, Spain",42.0316824,2.1622
8539,Restaurante La Isla,,€10 - €30,4.5,,"Calle Valencia, 201","Carrer Valencia, 08770 Sant Sadurní d'Anoia, Spain",41.4281682,1.7826155
8540,Chihuahua Restaurant,,"Mexican, Latin",4.0,,Passeig de Maragall 107,"Passeig de Maragall, 107, 08041 Barcelona, Spain",41.4188336,2.1804005
8541,Nikkei 103,,"Japanese, Peruvian, Latin, Sushi, Asian",4.0,,"Carrer D'Aribau, 33","Nikkei 103, Carrer d'Aribau, 33, 08011 Barcelona, Spain",41.3874951,2.1604182
8542,La Fonda Paisa,,"Latin, South American, Colombian",4.0,,Avenida Diagonal 332,"Avinguda Diagonal, 332, 08013 Barcelona, Spain",41.4005842,2.174568
8543,Celler Cal Marino,,"Spanish, Wine Bar, Mediterranean",4.0,,Calle Margarit 54,"Carrer d'Adrià Margarit, 08022 Barcelona, Spain",41.414123,2.1312229
8544,Sentore Ristorante Pizzeria Italiana,,€20 - €50,5.0,,Avinguda Diagonal 423,"Casa Sayrach, Avinguda Diagonal, 423, 425, 08036 Barcelona, Spain",41.3945853,2.1530715
8545,Fargo Cafe,,"Cafe, Mediterranean, Healthy",5.0,,Carrer de Marina 288,"Carrer de la Marina, 288, 08088 Barcelona, Spain",41.4050429,2.1739797
8546,Pizzeria Lucania II,,"Pizza, Italian",4.5,,"Carrer de Terol, 33","Carrer de Terol, 08012 Barcelona, Spain",41.4029711,2.1580375
8547,The Fish & Chips Shop Universitat,,€7 - €14,4.5,,Aribau 18,"Aribau, 08204 Sabadell, Spain",41.5283818,2.1105725
8548,Bitacora Poblenou,,"Mediterranean, Spanish",4.0,,Carrer de Ramon Turro 240,"Carrer de Ramon Turró, 0805 Barcelona, Spain",41.3913144,2.1914709
8549,La Republica,,€2 - €20,4.0,,Carrer de la Merce 13,"El Bombón, Carrer de la Mercè, 13, 08002 Barcelona, Spain",41.380071,2.1801819
8550,Restaurat L'Havana,,"Mediterranean, Spanish",4.0,,"Lleo, 1","LLeó, Carrer de Lleó, 08191 Rubí, Spain",41.49975,2.0439348
8551,Nihon Sakari,,€28 - €35,4.0,,"Carrer Girona, 88","Carrer Girona, 08820 el Prat de Llobregat, Spain",41.3231906,2.0999839
8552,Grill Corner,,"Mediterranean, Spanish",4.0,,"Avda. Diagonal, 3","Foster’s Hollywood, Avinguda Diagonal, 3, 08021 Barcelona, Spain",41.3921,2.14477
8553,The Hip Fish - Gracia,,,4.0,,"Carrer de la Providencia, 1 Bis","carrer de la Providència, 08912 Badalona, Spain",41.4432856,2.242687
8554,L' Artesana Poblenou,,€12 - €60,4.5,,Sant Joan de Malta 150,"Catalonia, Spain",41.66667,2.0
8555,Pasta Market Express,,€3 - €12,5.0,,C/ Europa 34,"Europa, Carrer dels Enamorats, 08026 Barcelona, Spain",41.408553,2.1851353
8556,Escuela de Cocina Terra d'Escudella,,€40 - €45,4.5,,08027,"08027 Barcelona, Spain",41.4223165,2.1858419
8557,Restaurant ROMA,,€14 - €36,4.0,,"Carrer Alfons XII, 41","Alfons XII, avinguda del Marquès de Mont-roig, 08918 Badalona, Spain",41.4351451,2.2281067
8558,Restaurante 18 Octubre,,"Mediterranean, European, Spanish",4.0,,"Julian Romea, 18","Carrer de Julián Romea, 08006 Barcelona, Spain",41.3981771,2.1529448
8559,Ramen House Barcelona,,€5 - €10,4.0,,Calle Villarroel 23 Local 2,"Catalonia, Spain",41.66667,2.0
8560,Bar Sauvage,,,4.5,,Passeig Del Born 13,"Passeig del Born, Barcelona, Spain",41.384793,2.1828281
8561,Bar Malasang,,"Bar, European, Spanish, Mediterranean",4.0,,Comte Borrell 148,"Carrer del Comte Borrell, 08029 Barcelona, Spain",41.3890729,2.1471054
8562,La Fibula,,€10 - €25,4.0,,"C/ Blai, 46","Blai, Carrer de Blai, 08015 Barcelona, Spain",41.3742769,2.1630491
8563,La Dorotea,,€5 - €9,4.5,,"Baixada de Sant Miquel, 4","Baixada de Sant Miquel, 4, 08002 Barcelona, Spain",41.3814523,2.1767228
8564,Skyways Barcelona,,€3 - €25,5.0,,"Carrer del Marques de Campo Sagrado, 5 - 7","Carrer del Marquès de Campo Sagrado, 08001 Barcelona, Spain",41.3758919,2.1640986
8565,A'Palloza,,€7 - €22,4.0,,Carrer del Rossello 136,"Lagarín, Carrer del Rosselló, 136, 08036 Barcelona, Spain",41.3902602,2.1535151
8566,"La Tagliatella C.C. Diagonal Mar, Barcelona",,€15 - €17,3.5,,"CC Diagonal Mar - Avda. Diagonal, 3","Catalonia, Spain",41.66667,2.0
8567,Bodega Granados,,€8 - €20,3.5,,"Carrer Enric Granados, 6","Carrer Enric Granados, 08620 Sant Vicenç dels Horts, Spain",41.3851754,1.9970822
8568,Kaymana,,€5 - €15,4.0,,"Carrer de l'Almirall Aixada, 21","Carrer de l'Almirall Aixada, 72 Barcelona, Spain",41.3773817,2.1898208
8569,Korean restaurant Kamasot,,,4.0,,Consell de Cent 465,"Consell de Cent, Carrer del Consell de Cent, 8015 Barcelona, Spain",41.3754015,2.143262
8570,Cabaret,,€40 - €100,4.5,,Avinguda de Francesc Cambo 14,"Avinguda de Francesc Cambó, Barcelona, Spain",41.3864138,2.1780738
8571,Restaurante Novotel,,"Mediterranean, European",4.0,,"Av. Diagonal, 201","Hotel Novotel Barcelona City, Avinguda Diagonal, 201, 08018 Barcelona, Spain",41.40378,2.1912843
8572,Acontraluz,,€31 - €56,3.5,,"Milanesat, 19","Carrer del Milanesat, 08022 Barcelona, Spain",41.3976744,2.1295663
8573,Enrique Tomas,,"Spanish, Deli",4.5,,"Carrer del Pi, 3","Carrer del Pi, 3, 08002 Barcelona, Spain",41.3829902,2.1739543
8574,Gent del Barri,,"European, Spanish, Mediterranean",4.0,,Rogent 25,"Gent del Barri, Carrer de Rogent, 25, 08026 Barcelona, Spain",41.4091439,2.184618
8575,Rabipelao Gracia,,€5 - €12,4.0,,"C/ Torrent D'en Vidalet, 22","El Rabipelao, Carrer del Torrent d'en Vidalet, 22, 08037 BCN Barcelona, Spain",41.4037055,2.1598503
8576,Via Dei Mille,,€20 - €30,4.0,,Arago 364,"Aragó, Carrer dels Enamorats, 08013 Barcelona, Spain",41.4041622,2.1816598
8577,El Molino,,Drinks,4.5,,"Carrer de Vila i Vila, 99","Carrer de Vila i Vilà, 08039 Barcelona, Spain",41.3726475,2.1740716
8578,Shokudo,,"Japanese, Sushi, Asian, Chinese",4.0,,"Calle Cinca, 66","Carrer del Cinca, 08030 Barcelona, Spain",41.4367573,2.1923889
8579,Si Chef Gracia,,€5 - €15,4.5,,Providencia 41,"08182 Sant Quirze Safaja, Spain",41.7331071,2.1866144
8580,Sarrietto,,€15 - €25,4.5,,"Carrer de Vallmajor, 33","Carrer de Vallmajor, 08021 Barcelona, Spain",41.3970983,2.1387081
8581,Asian Ways (Gotico),,€10 - €20,4.5,,"Julia Portet, 6","Le Bistrot de Pierrot, Carrer de Julià Portet, 6, 08002 Barcelona, Spain",41.3861738,2.1748464
8582,El Gallo de Oro,,"Mexican, Latin",4.5,,"Carrer de Napols, 266","Carrer de Nàpols, 266, 08013 Barcelona, Spain",41.4022201,2.1706072
8583,Indochine Ly Leap,,"Asian, Indonesian, Cambodian",4.0,,"Muntaner, 82","el Muntaner, Sobremunt, Catalonia, Spain",42.0316824,2.1622
8584,Otto's House,,€2 - €12,4.5,,"Calle Aribau, 77","Aribau, 08204 Sabadell, Spain",41.5283818,2.1105725
8585,Vista Corona La Barceloneta,,€15 - €30,4.5,,"C/ Escar, 16","VIVENDES ESCAR, Carrer de l'Escar, 7, 08039 Barcelona, Spain",41.3754926,2.1876422
8586,Don Bratwurst,,"German, European, Bar, Pub, Central European",4.5,,Passeig Fabra i Puig 374,"Passeig Fabra i Puig, Avinguda Meridiana, 08016 Barcelona, Spain",41.4304722,2.1835113
8587,Dune,,"Mediterranean, European, Spanish",4.0,,"Carrer de Sicilia, 111","Restaurante Dune, Carrer de Sicília, 111, 08088 Barcelona, Spain",41.3959081,2.1807554
8588,Casa do Acai Brunch & Coffee,,€5 - €12,4.5,,Av. Roma 43,"Avinguda Roma, 08290 Cerdanyola del Vallès, Spain",41.4881878,2.1292572
8589,El Senorio del Peru,,€10 - €19,4.0,,"C/ Corsega, 607","Còrsega, 08192 Sant Quirze del Vallès, Spain",41.5294463,2.0700326
8590,Clarius Restaurant,,€14 - €50,4.5,,C/ Sepulveda 159,"Catavins, Carrer de Sepúlveda, 159, 08011 Barcelona, Spain",41.3826656,2.1615873
8591,La Tagliatella,,€16 - €18,3.5,,Josep Tarradellas 116,"Rambla Josep Tarradellas, Vic, Spain",41.9237548,2.251678
8592,El Petit Firo,,"Bar, Mediterranean, European, Spanish",4.0,,Avinguda Gaudi,"Avinguda Gaudí, 08620 Sant Vicenç dels Horts, Spain",41.3802623,1.9988352
8593,El Bar del Paco,,"Spanish, Cafe, Mediterranean",4.5,,"Mercat Barceloneta, 1-2","Premmia Mercat, Carrer de la Drassana, 6, 72 Barcelona, Spain",41.3754895,2.1894534
8594,Pizza Luna,,"Latin, Pizza",4.0,,Passatge de Puigmadrona 18,"Passatge de Puigmadrona, 08026 Barcelona, Spain",41.4111949,2.1856951
8595,Morro Fi,,,4.0,,Consell de Cent 171,"Consell de Cent, Carrer del Consell de Cent, 8015 Barcelona, Spain",41.3754015,2.143262
8596,Jaipurwala,,€11 - €28,5.0,,Calle Valencia 506,"Carrer Valencia, 08770 Sant Sadurní d'Anoia, Spain",41.4281682,1.7826155
8597,Restaurant Teruel,,,4.0,,"Gran Via, 686","Gran Via, 08206 Sabadell, Spain",41.5610724,2.1013811
8598,Vermut I A La Gabia,,"Mediterranean, Spanish, European",4.0,,"Placa Osca, 7","Osca, Carrer d'Osca, 08620 Sant Vicenç dels Horts, Spain",41.393619,1.9988598
8599,La Traviata,,"Italian, Mediterranean",4.0,,"Calle Sabino de Arana, 22","Catalonia, Spain",41.66667,2.0
8600,Piscolabis,,,3.5,,"Diagonal, 593","Diagonal, Passeig de Gràcia, 08008 Barcelona, Spain",41.3955498,2.1604573
8601,Bodega Carol,,"Spanish, Mediterranean",4.5,,Carrer Arago 558,"Carrer Aragó, 08870 Sitges, Spain",41.2387213,1.8155559
8602,La Bona Pinta,,Pub,4.5,,Carrer de la Diputacio 443,"Carrer de la Diputació, 443, 08013 Barcelona, Spain",41.3998129,2.1794481
8603,Amaltea,,€20 - €40,4.0,,"Diputacio, 164","Diputació, 08733 Puigdàlber, Spain",41.4039736,1.6994345
8604,sensEspina,,€15 - €40,4.5,,Paris 209,"Paris, Carrer de Rios Rosas, 08801 Cornellà de Llobregat, Spain",41.358094,2.0894605
8605,Guayabal,,€6 - €23,5.0,,Calle Paris 161,"Carrer París, Calaf, Spain",41.7345229,1.5129803
8606,Restaurant La Salut,,"Mediterranean, European, Spanish",4.0,,Carrer de la Mare de Deu de la Salut 16/18,"Carrer de la Mare de Déu de la Salut, 08024 Barcelona, Spain",41.4133251,2.1598835
8607,Bar Raim 1886,,"Cuban, Caribbean",4.5,,Progres 46-48,"08912 Badalona, Spain",41.4434568,2.2412801
8608,Gallito,,,3.5,,Passeig del Mare Nostrum 19-21,"Mamarosa Beach, Passeig del Mare Nostrum, 19-21, 08039 Barcelona, Spain",41.3690801,2.1906631
8609,Le Divan,,€15 - €25,4.0,,"Calle Guillem Tell, 10","Carrer Guillem Tell, 08328 Premià de Dalt, Spain",41.4996648,2.33949
8610,El Glop de la Rambla,,,3.5,,"Rambla Catalunya, 65","Rambla de Catalunya, 08007 Barcelona, Spain",41.392756,2.1611337
8611,Massimo,,€30 - €45,4.0,,"Via Augusta, 217","Via Augusta, 217-223, 08021 Barcelona, Spain",41.3975859,2.1370132
8612,Xup Xup Restaurant,,,3.5,,"Paseo Maritimo de la Barceloneta, S/N","Catalonia, Spain",41.66667,2.0
8613,Minyam,,"Mediterranean, Spanish, European",4.0,,Calle Pujades 187,"Carrer Pujades, 08783 Masquefa, Spain",41.5043137,1.8092083
8614,Balmes/Rossello,,"Mediterranean, European, Spanish",3.5,,C/Balmes 129,"Estudi de dansa Mar, Carrer de Balmes, 129, 080007 Barcelona, Spain",41.3928864,2.1576347
8615,Cafe flanders,,"Spanish, Bar, Cafe, Mediterranean, European",4.0,,Carrer de la Providencia,"Carrer de la Providència, 8 Barcelona, Spain",41.4071505,2.1577347
8616,ZUCCA Italian Food,,€4 - €15,4.5,,"Carrer Del Marques de Sentmenat, 60","Carrer del Marquès de Sentmenat, 60, 62, 08029 Barcelona, Spain",41.3850585,2.1384142
8617,Solo Pizza,,"Italian, Pizza, Mediterranean, European",4.0,,Enrique Granados 108,"Catalonia, Spain",41.66667,2.0
8618,Casa Pamplinas,,"Mediterranean, Barbecue, Spanish",4.0,,"C/ Londres, 84","Londres, Carrer de Mallorca, 532, 8025 Barcelona, Spain",41.4083463,2.1821202
8619,Restaurante Pizzeria Verona,,€7 - €41,4.0,,"C/ Teodora Lamadrid, 3","Carrer de Teodora Lamadrid, 08022 Barcelona, Spain",41.407313,2.1358614
8620,Sopa,,€9 - €13,4.0,,"Roc Boronat, 114","Sopa, Carrer de Roc Boronat, 114, 08018 Barcelona, Spain",41.4023416,2.1952788
8621,The Top Grill & Cocktails,,"Mediterranean, Bar, Spanish, Pub",4.5,,Rossello 249,"Plaça del Rosselló, Argentona, Catalonia, Spain",41.5522494,2.3990221
8622,Tapas 24,,,4.0,,"Carrer de la Diputacio, 269","Tapas 24, Carrer de la Diputació, 269, 08007 Barcelona, Spain",41.3908686,2.1674705
8623,Putxinellis,,€15 - €30,4.0,,Carrer Salou 23,"Carrer de Salou, 08014 Barcelona, Spain",41.3760344,2.1376971
8624,2Y Restaurante Macrobiotico,,"Vegetarian Friendly, Gluten Free Options, Vegan Options",4.5,,Passatge Batllo 4,"Passatge de Batlló, 2Y restaurante macrobiótico, 4, 08036 Barcelona, Spain",41.3883261,2.151399
8625,Casa Carmen Diagonal Mar,,,4.0,,Avinguda Diagonal 3,"Foster’s Hollywood, Avinguda Diagonal, 3, 08021 Barcelona, Spain",41.3921,2.14477
8626,Cantina Mexicana La Hacienda,,"Mexican, Latin, Central American",4.0,,C/ Valencia 153,"Carrer de València, 153, 08088 Barcelona, Spain",41.3879097,2.1565659
8627,Restaurant Els Ocellets,,"Mediterranean, Spanish, European",4.0,,"Ronda Sant Pau, 55","Ronda Sant Pau, Avinguda del Paral·lel, 08001 Barcelona, Spain",41.3750966,2.1681601
8628,Restaurante Ta-Tung,,€15 - €35,4.0,,"Mare de Deu de la Salut, 75","Mare de Deu de la Salut, Camí de Can Ginebreda, 08790 Gelida, Spain",41.4202006,1.863716
8629,La Terrassa del Duquesa de Cardona,,,4.0,,Passeig Colom 12,"Passeig Colom, 08440 Cardedeu, Spain",41.6321584,2.3637128
8630,Flash Flash,,€25 - €35,3.5,,"La Granada del Penedes, 25","la Granada, Catalonia, Spain",41.3766679,1.7186912
8631,Bendita Helena,,€5 - €15,4.0,,Carrer de Galileu 261,"Hamza Super Mercado - Ali Super Ali, Carrer de Galileu, 261, 08014 Barcelona, Spain",41.3830082,2.1325943
8632,Messie Pizza,,€7 - €13,4.0,,c/Torrent de L'olla 65,"Torrent de l'Olla, Carrer del Torrent de l'Olla, 221, 08012 Barcelona, Spain",41.4066828,2.1518689
8633,Micaela pan y pizza,,"Italian, Pizza",5.0,,Carrer dels Corders 10,"Micaela, Carrer dels Corders, 10, CP 08003 Barcelona, Spain",41.3854925,2.1796645
8634,La Cigale Barcelona,,€10 - €25,4.5,,50 Carrer Tordera,"Tordera, Catalonia, Spain",41.6977173,2.7172987
8635,Bar Cervantes,,€4 - €12,4.0,,"Carrer de Cervantes, 7","Cervantes, Carrer de Cervantes, 7, 08002 Barcelona, Spain",41.3813653,2.1774484
8636,La Cuina de K.M,,Spanish,4.5,,Calle Padua 108,"Pàdua, Carrer de Pàdua, 08006 Barcelona, Spain",41.403344,2.1430732
8637,La Piemontesa,,€8 - €15,4.0,,Enric Granados 60,"Av. Rius i Taulet, Enric Granados, Avinguda de Rius i Taulet, 08172 Sant Cugat del Vallès, Spain",41.4720436,2.0814069
8638,Come una volta,,€6 - €24,4.0,,"Calle Roger de Flor, 246","Carrer Roger de Flor, 08924 Santa Coloma de Gramenet, Spain",41.4632118,2.2080004
8639,La Hacienda,,"Mexican, Latin, Central American",4.0,,Carrer de la Princesa,"Carrer de la Princesa, 08003 Barcelona, Spain",41.386603,2.1820736
8640,El Abasto bcn,,€20 - €50,4.5,,"Carrer del Dr. Trueta, 229","Carrer del Doctor Trueta, 08780 el Papiol, Spain",41.4360978,2.007259
8641,Bodega del Born,,€2 - €10,5.0,,"Mirallers,15","Carrer dels Mirallers, CP 08003 Barcelona, Spain",41.3840671,2.1809342
8642,W Lounge,,"Bar, Mediterranean, European, Spanish",4.0,,"Placa de la Rosa dels Vents, 1","W Barcelona, Plaça de la Rosa dels Vents, 1, 08039 Barcelona, Spain",41.3685118,2.1901917
8643,Artte,,€20 - €35,4.0,,"Muntaner, 83 C","el Muntaner, Sobremunt, Catalonia, Spain",42.0316824,2.1622
8644,Farola,,€6 - €12,4.5,,Carrer Del Rec 67,"Carrer del Rec, 08003 Barcelona, Spain",41.385832,2.1823617
8645,Lateral Bcn,,"Mediterranean, European, Spanish",3.5,,Carrer de Consell de Cent 329,"carrer de Consell de Cent, 08170 Montornès del Vallès, Spain",41.5393725,2.2716073
8646,Giselle,,€2 - €9,4.5,,carrer de l'Hospital 81,"Humana, Carrer de l'Hospital, 81, 08001 Barcelona, Spain",41.3801331,2.1695937
8647,Restaurante Rincon de Leon,,€20 - €45,4.0,,"Calle Sardenya, 304","Carrer Sardenya, 08192 Sant Quirze del Vallès, Spain",41.5298238,2.0708297
8648,Fishhh!,,"Seafood, Mediterranean, European, Spanish",4.0,,Diagonal 557,"Diagonal, Passeig de Gràcia, 08008 Barcelona, Spain",41.3955498,2.1604573
8649,August,,€6 - €12,4.0,,"Ronda de Sant Pau, 9","Ronda de Sant Pau, 08001 Barcelona, Spain",41.3749809,2.1678835
8650,Asador de Burgos,,€20 - €50,4.0,,"Bruc, 120","el Bruc, Catalonia, Spain",41.5792357,1.7812982
8651,La Cervesera Artesana,,"Bar, Pub",4.0,,Carrer de Sant Agusti 14,"La Cervesera Artesana, Carrer de Sant Agustí, 14, 08012 Barcelona, Spain",41.3980539,2.1610008
8652,PAQUITOS,,€12 - €20,4.0,,Carrer Del Comte d'Urgell 196,"Midori Ya, Carrer del Comte d'Urgell, 196, 08936 Barcelona, Spain",41.3880382,2.1511272
8653,La Villa,,"Italian, Pizza, European, Mediterranean",4.0,,"Passeig Sant Antoni 15, 08014","08014, Spain",41.3888,2.159
8654,El Raco -Placa Urquinaona,,"Pizza, Mediterranean, European, Italian",4.0,,"Placa Urquinaona, 7","Pl Urquinaona, Plaça d'Urquinaona, 08010 Barcelona, Spain",41.3888302,2.1732531
8655,Azul,,"Mediterranean, Spanish",4.5,,"Calle de Provenza, 54 08029","08029, Spain",41.3888,2.159
8656,Cal Chusco,,"Bar, Mediterranean, European, Spanish, Pub",4.0,,C/ Almirall Aixada 5,"Pg Joan de Borbó - Almirall Aixada, Passeig de Joan de Borbó, 72 Barcelona, Spain",41.3775692,2.1881898
8657,1881 per Sagardi,,,3.5,,"Placa de Pau Vila, 3","Plaça de Pau Vila, CP 08003 Barcelona, Spain",41.3820856,2.1853578
8658,Sagues Il Ristorante,,"Italian, Mediterranean",4.0,,"Carrer de Sagues, 25","Catalonia, Spain",41.66667,2.0
8659,Restaurante Sant Joan,,"Spanish, European",4.5,,"Passeig de Sant Joan, 65","Passeig de Sant Joan, 65, 08009 Barcelona, Spain",41.3970934,2.1721911
8660,LABARRA Westside,,,3.5,,C. Comte d'Urgell 240,"Carrer Comte d'Urgell, 08859 Begues, Spain",41.3296319,1.9331417
8661,La Hacienda,,,3.5,,"Carrer del Rec, 69","Carrer del Rec, 08003 Barcelona, Spain",41.385832,2.1823617
8662,Gutai,,€20 - €40,4.5,,Carrer de Mallorca 196,"Massa, Carrer de Mallorca, 196, 8007 Barcelona, Spain",41.3900833,2.1578429
8663,LULU Barcelona,,"Cafe, European",4.0,,"Av. del Marques de l'Argentera, 7","Avinguda del Marquès de l'Argentera, 7-9, 08003 Barcelona, Spain",41.3840412,2.1841956
8664,Moti Mahal,,€10 - €25,4.0,,"Sant Pau, 103","Sant Pau, Manresa, Catalonia, Spain",41.7146103,1.8341856
8665,Restaurante Fulano Mengano,,€25 - €45,4.5,,"Calle Muntaner, 325","Muntaner, Via Augusta, 08021 Barcelona, Spain",41.3986188,2.1428749
8666,Villa Caprice,,"Italian, Mediterranean, European, Spanish",4.0,,Avinguda De Gaudi,"Avinguda de Gaudí, Barcelona, Spain",41.4070281,2.1744033
8667,Madness Coffee Barcelona,,€2 - €30,5.0,,"Moll de Barcelona, s/n","Moll de Barcelona, 08039 Barcelona, Spain",41.371646,2.1805271
8668,Restaurante Escairon,,€15 - €30,4.0,,"Fontrodona, 5","Fontrodona, Avinguda del Paral·lel, 08001 Barcelona, Spain",41.3748438,2.1679054
8669,Riera29 restaurant,,€15 - €30,4.5,,Riera de Sant Miquel 29,"Riera de Sant Miquel, 08585 Sora, Spain",42.0846697,2.1892033
8670,Restaurante Wow,,"Diner, Spanish",4.0,,"Carrer d'Enric Granados, 73","Carrer d'Enric Granados, Wow!, 73, 08008 Barcelona, Spain",41.3912435,2.1575751
8671,SomSacs,,€8 - €25,4.5,,Carrer Figols 28,"Fígols, Catalonia, Spain",42.1809467,1.8366637
8672,Vapiano,,€7 - €15,4.0,,Avenida Diagonal 3,"Foster’s Hollywood, Avinguda Diagonal, 3, 08021 Barcelona, Spain",41.3921,2.14477
8673,Kurz & Gut Barceloneta,,,4.5,,"Passeig de Joan de Borbo, 65","Passeig de Joan de Borbó, 08 Barcelona, Spain",41.3819224,2.1865126
8674,Urban Jungle,,€6 - €15,4.5,,Calle Consell de Cent 275,"Carrer Consell de Cent, 08470 Sant Celoni, Spain",41.6874889,2.4848143
8675,B24,,€15 - €35,4.5,,"Av. Diagonal, 661-671","Avinguda Diagonal, 08028 Barcelona, Spain",41.3881867,2.1267639
8676,Black Cherry Persa,,€7 - €40,4.5,,"Carrer d'Aribau, 158","Carrer d'Aribau, 158, 08036 Barcelona, Spain",41.3923895,2.1544852
8677,The dog is hot,,"American, Fast Food, Street Food, South American",4.0,,Calle Joaquin Costa 47,"Catalonia, Spain",41.66667,2.0
8678,Zumito,,"Vegetarian Friendly, Vegan Options, Gluten Free Options",4.5,,"Passeig de Joan de Borbo, 74","Passeig de Joan de Borbó, 08 Barcelona, Spain",41.3810792,2.1863797
8679,Ben Tips,,"Bar, Fast Food, European, Spanish",4.0,,Republica Argentina 104,"Avenida Republica Argentina 187, Avinguda de la República Argentina, 08023 Barcelona, Spain",41.4114632,2.1416709
8680,Bar Estudiantil,,"Bar, Mediterranean, European, Spanish",4.0,,"Gran Via Corts Catalanes, 592","Gran Via Corts Catalanes, 839-841, Gran Via de les Corts Catalanes, 08018 Barcelona, Spain",41.4053613,2.1892186
8681,Folks Burgers,,€8 - €17,5.0,,"Carrer del Portal Nou, 19","Admír, Carrer del Portal Nou, 19, 08003 Barcelona, Spain",41.3886709,2.180643
8682,La Taberneta,,€4 - €37,4.0,,"Carrer d'Andrea Doria,39","Carrer d'Andrea Dòria, 08 Barcelona, Spain",41.3803785,2.1908949
8683,Casa Guinart,,,4.0,,"Ramblas, 95","Hotel chic&basic Ramblas, Passatge de Gutenberg, 7, 08001 Barcelona, Spain",41.3770098,2.1748842
8684,Petra,,"Fast Food, Middle Eastern, Lebanese, Mediterranean",4.5,,"Asturies, 53","Astúries, Ronda del Nord, 08520 les Franqueses del Vallès, Spain",41.6220016,2.3010196
8685,La Trini,,,4.0,,Carrer de Verdi 30,"La Trini, Carrer de Verdi, 30, 08012 Barcelona, Spain",41.4038895,2.1569036
8686,El Xalet de Montjuic,,€30 - €60,3.5,,Av. Miramar 31,"Avinguda Miramar, 08840 Viladecans, Spain",41.3190594,2.0065748
8687,Malabida,,€5 - €20,5.0,,"Carrer de Blai, 63","Carrer de Blai, 08001 Barcelona, Spain",41.3729517,2.1664379
8688,Closet restaurante,,€12 - €16,4.5,,Calle Hospital 157,"Carrer Hospital, 08402 Granollers, Spain",41.6145579,2.2908011
8689,Nectari Restaurant,,€25 - €50,4.0,,c/ Valencia 28,"Valencia, Carrer de València, 08291 Ripollet, Spain",41.4943576,2.1695649
8690,El Petit Mos,,€15 - €25,4.5,,c/ Sepulveda No 80,"Carrer de Sepúlveda, 08015 Barcelona, Spain",41.3803469,2.1586871
8691,Restaurante Salambo,,"European, Spanish, Mediterranean",4.0,,"Torrijos, 51","Torrijos, Passeig de la Riera, 08191 Rubí, Spain",41.490102,2.0286422
8692,Pez Vela Chiringuito,,,4.0,,Paseo del Mare Nostrum 19/21,"Catalonia, Spain",41.66667,2.0
8693,Aska Dinya,,"Mediterranean, Middle Eastern",4.0,,"Carrer de Verdi, 28","Askadinya, Carrer de Verdi, 28, 08012 Barcelona, Spain",41.4038617,2.1569498
8694,El Nacional - La Llotja,,,4.0,,"Passeig de Gracia, 24 bis","Passeig de Gràcia, 24 Bis, 08007 Barcelona, Spain",41.3905227,2.1682552
8695,Mosaic Restaurant,,€30 - €55,4.0,,"Avinguda Diagonal, 589-591","Avinguda Diagonal, 08028 Barcelona, Spain",41.3881867,2.1267639
8696,Taverna El Ficus,,€20 - €35,4.5,,Renaixenca 53,"Renaixença, Carrer de Salvador Espriu, 08784 els Hostalets de Pierola, Spain",41.5388328,1.7659406
8697,La Calaca,,€6 - €13,4.5,,"Concili de Trento, 90","Carrer del Concili de Trento, 90-100, 08018 Barcelona, Spain",41.4132059,2.1955212
8698,Restaurante Menage A Trois,,€6 - €13,4.0,,"Carrer d'en Bot, 3","Ménage à trois, Carrer d'en Bot, 3, 08001 Barcelona, Spain",41.3838709,2.1723407
8699,Granatt Bar,,€9 - €35,4.5,,Josep Torres 25,"Jardins de Josep Sala i Perramon, Can Jané, Granollers, Catalonia, Spain",41.6005745,2.2860767
8700,Bar Mandri,,€3 - €20,4.0,,"Mandri, 60","Carrer de Mandri, 08022 Barcelona, Spain",41.4020588,2.1351318
8701,W Bar,,Bar,4.0,,Placa de la Rosa del Vents 1,"Catalonia, Spain",41.66667,2.0
8702,el Trencadis,,"European, Spanish, Mediterranean",4.5,,"Pau Claris, 143","Pau Claris, Gran Via de les Corts Catalanes, 08007 Barcelona, Spain",41.3897269,2.1688642
8703,Hula Poke Food - URQUINAONA,,€9 - €11,4.5,,Carrer d_ Ausias Marc 4,"Catalonia, Spain",41.66667,2.0
8704,Bar del foyer del Palau de la Musica,,"Cafe, Spanish",4.0,,"Palau de la Musica, 4-6","Palau de la Música Catalana, Carrer del Palau de la Música, 4-6, 08003 Barcelona, Spain",41.3875837,2.1752316
8705,Taberna Del Cura,,"Mediterranean, Spanish",4.0,,"C/ Gran De Gracia, 83","Carrer Gran de Gràcia, 08012 Barcelona, Spain",41.4016856,2.1533142
8706,Castell de Xativa,,"Seafood, Mediterranean, European, Spanish",4.0,,"Valencia, 360","Valencia, Carrer de València, 08291 Ripollet, Spain",41.4943576,2.1695649
8707,Sana Vida,,€4 - €9,4.5,,Roger de Lluria 31,"Roger De Lluria, Carrer de Roger de Llúria, 08010 Barcelona, Spain",41.3910629,2.1718498
8708,about salmon,,€4 - €21,5.0,,"Carrer de Ramis, 2","Famen, Carrer de Ramis, 2-4, 08012 Barcelona, Spain",41.4023815,2.1612842
8709,Can Vador Illa Diagonal,,€20 - €30,4.0,,c/ Deu i Mata 69,"Carrer de Deu i Mata, 08021 Barcelona, Spain",41.3890098,2.1367406
8710,Doni Fresh Food,,€2 - €5,5.0,,Nou de la Rambla 44,"Nou de la Rambla, Avinguda del Paral·lel, 08001 Barcelona, Spain",41.3750759,2.1702821
8711,Collonut,,"Spanish, Catalan, Mediterranean",4.5,,Calle de Olesa numero 7,"Carrer de Olesa, 08292 Esparreguera, Spain",41.5344076,1.8777839
8712,Konig Barcelona Born,,€7 - €15,4.0,,"Carrer de la Fusina, 3","Carrer de la Fusina, Barcelona, Spain",41.3864095,2.1832549
8713,L'Antico Borgo Napoletano,,"Italian, Pizza",4.5,,Carrer Escudellers Blancs 14,"Carrer dels Escudellers Blancs, 80002 Barcelona, Spain",41.380428,2.1760981
8714,Libelina 2,,€20 - €35,4.5,,"C/ L'Equador, 89","Carrer de l'Equador, 85, 89, 08029 Barcelona, Spain",41.3876693,2.1379582
8715,Miu Japones,,€20 - €30,4.0,,"Valencia, 249","Valencia, Carrer de València, 08291 Ripollet, Spain",41.4943576,2.1695649
8716,La Muscleria,,,4.0,,"Mallorca, 290","Mallorca, Carrer de Mallorca, 08009 Barcelona, Spain",41.3968924,2.1667115
8717,Marimorena BCN,,€20 - €50,4.5,,"Loreto, 24-26","Marimorena BCN, Carrer de Loreto, 24-26, 08029 Barcelona, Spain",41.389919,2.1424208
8718,Veggie Garden Gran Via,,"Indian, Fusion",4.0,,Gran Via de les Corts catalanes 602,"Veggie Garden, Gran Via de les Corts Catalanes, 602, 08001 Barcelona, Spain",41.3868107,2.1652139
8719,A Casa Portuguesa,,"Portuguese, Cafe, European",4.5,,"Carrer de l'Or, 8","Carrer de l'Or, 8, 08012 Barcelona, Spain",41.4038296,2.1559686
8720,El Felino,,"Italian, Pizza, Mediterranean, European",4.0,,Calle Marina 269,"carrer marina, 08339 Vilassar de Dalt, Spain",41.5113131,2.3574845
8721,El Rincon Del Cava,,"Bar, Spanish, Pub",4.0,,"C/ Blasco de Garay, 53","Carrer de Blasco de Garay, 08015 Barcelona, Spain",41.3744643,2.1631961
8722,RACO D'ANGEL,,€9 - €27,4.5,,Folgueroles 24,"Folgueroles, Catalonia, Spain",41.9392868,2.3180742
8723,DOP Restaurante,,€18 - €37,4.0,,"Via Augusta, 201","Via Augusta, 201, 08021 Barcelona, Spain",41.3976252,2.139319
8724,Sports Bar Italian Food - Av. Diagonal,,€7 - €20,4.0,,Avinguda Diagonal 123,"Avinguda Diagonal, 123, 08005 Barcelona, Spain",41.4066318,2.2014418
8725,Alrouche Restaurant,,"Bar, Arabic, Lebanese, Moroccan",5.0,,"Moll d'Espanya, N5","Moll d'Espanya, 72 Barcelona, Spain",41.3757474,2.1823397
8726,Anormal,,€5 - €18,4.5,,Carrer de Bertran 28,"Spoonik Restaurant, Carrer de Bertran, 28, 08023 Barcelona, Spain",41.4052116,2.1401885
8727,Aflamas restaurante,,€30 - €60,5.0,,Calle Loreto 32,"Loreto, Carrer d'en Giralt el Pellisser, CP 08003 Barcelona, Spain",41.3863335,2.1790439
8728,Celler de la Ribera,,,3.5,,Placa de Les Olles 6,"Plaça de les Olles, Barcelona, Spain",41.3837473,2.1832402
8729,El Cangrejo Loco,,,4.0,,Moll De Gregal 29-30,"El Cangrejo Loco, Moll de Gregal, 29-30, 08005 Barcelona, Spain",41.3877691,2.2017781
8730,Granja Petitbo,,"Cafe, Mediterranean, European",4.0,,"Passeig de Sant Joan, 82","Granja Petitbo, Passeig de Sant Joan, 82, 08013 Barcelona, Spain",41.3976109,2.1724897
8731,El Modernista,,"Bar, Mediterranean, European, Spanish, Catalan",4.0,,"Passeig de Garcia Faria, 29","Passeig de Garcia Fària, 08005 Barcelona, Spain",41.3993609,2.208389
8732,Restaurante Feroz,,,4.0,,"Carrer Tuset, 27","Carrer de Tuset, 08006 Barcelona, Spain",41.3956711,2.1523527
8733,Creps Barcelona,,"French, European",4.0,,"Enric Granados, 38","Av. Rius i Taulet, Enric Granados, Avinguda de Rius i Taulet, 08172 Sant Cugat del Vallès, Spain",41.4720436,2.0814069
8734,Cafe Camelia,,€7 - €19,4.0,,"Verdi, 79","Camelia Vegan Cafe, Carrer de Verdi, 79, 08012 Barcelona, Spain",41.4051906,2.1553839
8735,Taqueria El Changarrito,,"Mexican, Central American, Latin",4.5,,"Calle de la Franca Xica, 52","Taqueria El Changarrito, Carrer de la França Xica, 52, 08004 Barcelona, Spain",41.372222,2.155814
8736,Oassis Natural Cooking,,€10 - €25,4.0,,"Passeig de Gracia, 24","Qu Qu, Passeig de Gràcia, 24, 08007 Barcelona, Spain",41.3901575,2.1678809
8737,Restaurante Charrito,,€5 - €30,4.0,,"Carrer de la Diputacio, 233","EL CHARRITO, Carrer de la Diputació, 233, 08007 Barcelona, Spain",41.3896183,2.1662427
8738,Cal Robert,,"Spanish, Mediterranean",4.5,,"Calle Tordera, 58","Carrer Tordera, 08360 Canet de Mar, Spain",41.5917792,2.57999
8739,Bar Celona,,€9 - €12,4.5,,"Poeta Cabanyes, 30","Carrer del Poeta Cabanyes, 08880 Cubelles, Spain",41.2048774,1.6725328
8740,La Quesadilla By Fernando Sanz,,€4 - €9,5.0,,Calle Sardenya 386 bajos,"Catalonia, Spain",41.66667,2.0
8741,Seventeen Restaurant,,€22 - €27,4.5,,"Carrer de Balmes, 117","Olivia Balmes Hotel, Carrer de Balmes, 117, 08008 Barcelona, Spain",41.3922038,2.1585614
8742,Gringa,,€8 - €20,4.5,,Calle lleialtat 16,"Carrer de la Lleialtat, 08001 Barcelona, Spain",41.3764073,2.1661245
8743,Koryo,,"Asian, Korean",4.0,,"Carrer Reus, 4","Carrer Reus, 08461 Santa Maria de Palautordera, Spain",41.6897225,2.4416031
8744,Casanova City,,€25 - €125,5.0,,"Carrer de Vallmajor, 33, local 1","Carrer de Vallmajor, 08021 Barcelona, Spain",41.3970983,2.1387081
8745,Via Granados,,€20 - €45,4.0,,"Carrer d'Enric Granados, 67","Carrer d'Enric Granados, 67, 080007 Barcelona, Spain",41.3910712,2.157639
8746,Isami,,"Japanese, Sushi, Asian",4.0,,"Rambla Del Poblenou, 88","Isami, Rambla del Poblenou, 88, 08005 Barcelona, Spain",41.4018825,2.2003717
8747,ZOZAN Restaurante,,€4 - €10,4.5,,"Rambla Del Poblenou, 18","Rambla del Poblenou, Barcelona, Spain",41.4070751,2.1933213
8748,El Japones del Tragaluz,,€22 - €40,4.0,,"Passatge de la Concepcio, 5","Passatge de la Concepció, 5, 08008 Barcelona, Spain",41.3946846,2.1605202
8749,Els Set d'En Joan,,€20 - €35,4.0,,"Calle Mallorca, 6","Carrer Mallorca, 08560 les Masies de Roda, Spain",41.9880179,2.3193919
8750,L'Osteria del Contadino,,€23 - €37,4.5,,"Calle Saragossa, 123","Carrer Saragossa, 08859 Begues, Spain",41.3341686,1.9155743
8751,Restaurante El Chato,,"Spanish, Mediterranean, European",4.0,,"Corts Catalanes, 697","Gran Via de les Corts Catalanes, 08018 Barcelona, Spain",41.4101378,2.1957677
8752,Once Upon a Time,,€18 - €40,4.0,,"Mandri, 32","Carrer de Mandri, 08022 Barcelona, Spain",41.4014799,2.135748
8753,El Kiosko,,"International, Mediterranean, Spanish, Healthy",4.5,,"Avenida de Josep Tarradellas, 153","Avinguda de Josep Tarradellas, 153, 08029 Barcelona, Spain",41.3915984,2.1435506
8754,Restaurante Toc De Gralla,,,4.5,,"Carrer d'Aribau, 65","Carrer d'Aribau, 65, 080007 Barcelona, Spain",41.3886482,2.1586189
8755,La Taverneta Nou,,"French, Mediterranean, European",4.0,,"Carrer de Francesc Pujols, 3","Carrer de Francesc Pujols, 08001 Barcelona, Spain",41.3842588,2.1725665
8756,TicTaste,,€3 - €12,5.0,,"Calle Balmes, 165","Carrer Balmes, 08600 Berga, Spain",42.1044459,1.8477883
